{"157.55.39.83": {"country_code": "US", "country_name": "United States", "city": null, "postal": null, "latitude": 47.6062, "longitude": -122.3321, "IPv4": "157.55.39.83", "state": "Washington"}, "216.244.66.235": {"country_code": "US", "country_name": "United States", "city": "Lake Stevens", "postal": "98258", "latitude": 48.0171, "longitude": -122.0672, "IPv4": "216.244.66.235", "state": "Washington"}, "147.92.153.3": {"country_code": "JP", "country_name": "Japan", "city": null, "postal": null, "latitude": 35.69, "longitude": 139.69, "IPv4": "147.92.153.3", "state": null}, "66.228.55.32": {"country_code": "US", "country_name": "United States", "city": "Dallas", "postal": "75270", "latitude": 32.7787, "longitude": -96.8217, "IPv4": "66.228.55.32", "state": "Texas"}, "54.36.148.81": {"country_code": "FR", "country_name": "France", "city": null, "postal": null, "latitude": 48.8582, "longitude": 2.3387000000000002, "IPv4": "54.36.148.81", "state": null}, "220.181.108.166": {"country_code": "CN", "country_name": "China", "city": "Beijing", "postal": null, "latitude": 39.9288, "longitude": 116.3889, "IPv4": "220.181.108.166", "state": "Beijing"}, "54.36.148.111": {"country_code": "FR", "country_name": "France", "city": null, "postal": null, "latitude": 48.8582, "longitude": 2.3387000000000002, "IPv4": "54.36.148.111", "state": null}, "97.104.65.120": {"country_code": "US", "country_name": "United States", "city": "Melbourne Beach", "postal": "32951", "latitude": 28.0219, "longitude": -80.5389, "IPv4": "97.104.65.120", "state": "Florida"}, "66.249.79.4": {"country_code": "US", "country_name": "United States", "city": null, "postal": null, "latitude": 37.751, "longitude": -97.822, "IPv4": "66.249.79.4", "state": null}, "66.249.79.7": {"country_code": "US", "country_name": "United States", "city": null, "postal": null, "latitude": 37.751, "longitude": -97.822, "IPv4": "66.249.79.7", "state": null}, "203.18.51.111": {"country_code": "IN", "country_name": "India", "city": "Bhopal", "postal": "464993", "latitude": 23.2667, "longitude": 77.4, "IPv4": "203.18.51.111", "state": "Madhya Pradesh"}, "220.181.108.84": {"country_code": "CN", "country_name": "China", "city": "Beijing", "postal": null, "latitude": 39.9288, "longitude": 116.3889, "IPv4": "220.181.108.84", "state": "Beijing"}, "114.119.158.157": {"country_code": "CN", "country_name": "China", "city": null, "postal": null, "latitude": 34.7725, "longitude": 113.7266, "IPv4": "114.119.158.157", "state": null}, "54.36.148.82": {"country_code": "FR", "country_name": "France", "city": null, "postal": null, "latitude": 48.8582, "longitude": 2.3387000000000002, "IPv4": "54.36.148.82", "state": null}, "66.249.79.2": {"country_code": "US", "country_name": "United States", "city": null, "postal": null, "latitude": 37.751, "longitude": -97.822, "IPv4": "66.249.79.2", "state": null}, "167.114.158.241": {"country_code": "CA", "country_name": "Canada", "city": "Montreal", "postal": "H3A", "latitude": 45.504, "longitude": -73.5747, "IPv4": "167.114.158.241", "state": "Quebec"}, "188.40.120.130": {"country_code": "DE", "country_name": "Germany", "city": null, "postal": null, "latitude": 51.2993, "longitude": 9.491, "IPv4": "188.40.120.130", "state": null}, "54.36.149.48": {"country_code": "FR", "country_name": "France", "city": null, "postal": null, "latitude": 48.8582, "longitude": 2.3387000000000002, "IPv4": "54.36.149.48", "state": null}, "13.66.139.37": {"country_code": "US", "country_name": "United States", "city": null, "postal": null, "latitude": 47.6062, "longitude": -122.3321, "IPv4": "13.66.139.37", "state": "Washington"}, "66.249.79.30": {"country_code": "US", "country_name": "United States", "city": null, "postal": null, "latitude": 37.751, "longitude": -97.822, "IPv4": "66.249.79.30", "state": null}, "54.36.149.88": {"country_code": "FR", "country_name": "France", "city": null, "postal": null, "latitude": 48.8582, "longitude": 2.3387000000000002, "IPv4": "54.36.149.88", "state": null}, "46.248.190.193": {"country_code": "PL", "country_name": "Poland", "city": null, "postal": null, "latitude": 52.2394, "longitude": 21.0362, "IPv4": "46.248.190.193", "state": null}, "42.189.248.241": {"country_code": "MY", "country_name": "Malaysia", "city": "Perai", "postal": "13700", "latitude": 5.3834, "longitude": 100.393, "IPv4": "42.189.248.241", "state": "Penang"}, "158.130.30.48": {"country_code": "US", "country_name": "United States", "city": "Philadelphia", "postal": "19104", "latitude": 39.9597, "longitude": -75.2024, "IPv4": "158.130.30.48", "state": "Pennsylvania"}, "54.36.148.52": {"country_code": "FR", "country_name": "France", "city": null, "postal": null, "latitude": 48.8582, "longitude": 2.3387000000000002, "IPv4": "54.36.148.52", "state": null}, "185.191.171.7": {"country_code": "MD", "country_name": "Republic of Moldova", "city": null, "postal": null, "latitude": 47.0188, "longitude": 28.8128, "IPv4": "185.191.171.7", "state": null}, "78.46.90.120": {"country_code": "DE", "country_name": "Germany", "city": null, "postal": null, "latitude": 51.2993, "longitude": 9.491, "IPv4": "78.46.90.120", "state": null}, "69.174.157.246": {"country_code": "US", "country_name": "United States", "city": "Oaktown", "postal": "47561", "latitude": 38.8579, "longitude": -87.3879, "IPv4": "69.174.157.246", "state": "Indiana"}, "68.251.40.227": {"country_code": "US", "country_name": "United States", "city": "Des Plaines", "postal": "60016", "latitude": 42.0467, "longitude": -87.8859, "IPv4": "68.251.40.227", "state": "Illinois"}, "54.36.148.229": {"country_code": "FR", "country_name": "France", "city": null, "postal": null, "latitude": 48.8582, "longitude": 2.3387000000000002, "IPv4": "54.36.148.229", "state": null}, "68.41.101.173": {"country_code": "US", "country_name": "United States", "city": "Dearborn", "postal": "48124", "latitude": 42.2941, "longitude": -83.2536, "IPv4": "68.41.101.173", "state": "Michigan"}, "138.246.3.181": {"country_code": "DE", "country_name": "Germany", "city": "Munich", "postal": "80796", "latitude": 48.15, "longitude": 11.5833, "IPv4": "138.246.3.181", "state": "Bavaria"}, "54.36.148.59": {"country_code": "FR", "country_name": "France", "city": null, "postal": null, "latitude": 48.8582, "longitude": 2.3387000000000002, "IPv4": "54.36.148.59", "state": null}, "141.151.73.215": {"country_code": "US", "country_name": "United States", "city": null, "postal": null, "latitude": 37.751, "longitude": -97.822, "IPv4": "141.151.73.215", "state": null}, "114.119.157.111": {"country_code": "CN", "country_name": "China", "city": null, "postal": null, "latitude": 34.7725, "longitude": 113.7266, "IPv4": "114.119.157.111", "state": null}, "54.36.148.50": {"country_code": "FR", "country_name": "France", "city": null, "postal": null, "latitude": 48.8582, "longitude": 2.3387000000000002, "IPv4": "54.36.148.50", "state": null}, "54.36.148.172": {"country_code": "FR", "country_name": "France", "city": null, "postal": null, "latitude": 48.8582, "longitude": 2.3387000000000002, "IPv4": "54.36.148.172", "state": null}, "66.249.79.82": {"country_code": "US", "country_name": "United States", "city": null, "postal": null, "latitude": 37.751, "longitude": -97.822, "IPv4": "66.249.79.82", "state": null}, "66.249.79.89": {"country_code": "US", "country_name": "United States", "city": null, "postal": null, "latitude": 37.751, "longitude": -97.822, "IPv4": "66.249.79.89", "state": null}, "103.244.176.140": {"country_code": "PK", "country_name": "Pakistan", "city": "Karachi", "postal": "12311", "latitude": 24.9056, "longitude": 67.0822, "IPv4": "103.244.176.140", "state": "Sindh"}, "54.36.149.46": {"country_code": "FR", "country_name": "France", "city": null, "postal": null, "latitude": 48.8582, "longitude": 2.3387000000000002, "IPv4": "54.36.149.46", "state": null}, "54.36.148.7": {"country_code": "FR", "country_name": "France", "city": null, "postal": null, "latitude": 48.8582, "longitude": 2.3387000000000002, "IPv4": "54.36.148.7", "state": null}, "137.110.34.111": {"country_code": "US", "country_name": "United States", "city": "La Jolla", "postal": "92093", "latitude": 32.8473, "longitude": -117.2742, "IPv4": "137.110.34.111", "state": "California"}, "185.191.171.3": {"country_code": "MD", "country_name": "Republic of Moldova", "city": null, "postal": null, "latitude": 47.0188, "longitude": 28.8128, "IPv4": "185.191.171.3", "state": null}, "116.179.32.142": {"country_code": "CN", "country_name": "China", "city": null, "postal": null, "latitude": 34.7725, "longitude": 113.7266, "IPv4": "116.179.32.142", "state": null}, "140.113.228.234": {"country_code": "TW", "country_name": "Taiwan", "city": "Taipei", "postal": null, "latitude": 25.0478, "longitude": 121.5318, "IPv4": "140.113.228.234", "state": "Taipei City"}, "54.36.148.121": {"country_code": "FR", "country_name": "France", "city": null, "postal": null, "latitude": 48.8582, "longitude": 2.3387000000000002, "IPv4": "54.36.148.121", "state": null}, "81.245.139.5": {"country_code": "BE", "country_name": "Belgium", "city": "Dendermonde", "postal": "9200", "latitude": 51.0333, "longitude": 4.1167, "IPv4": "81.245.139.5", "state": "East Flanders Province"}, "76.20.12.175": {"country_code": "US", "country_name": "United States", "city": "Davis", "postal": "95616", "latitude": 38.5538, "longitude": -121.7418, "IPv4": "76.20.12.175", "state": "California"}, "47.157.120.179": {"country_code": "US", "country_name": "United States", "city": "North Hills", "postal": "91343", "latitude": 34.2366, "longitude": -118.4758, "IPv4": "47.157.120.179", "state": "California"}, "185.191.171.23": {"country_code": "MD", "country_name": "Republic of Moldova", "city": null, "postal": null, "latitude": 47.0188, "longitude": 28.8128, "IPv4": "185.191.171.23", "state": null}, "116.179.32.66": {"country_code": "CN", "country_name": "China", "city": null, "postal": null, "latitude": 34.7725, "longitude": 113.7266, "IPv4": "116.179.32.66", "state": null}, "54.36.148.127": {"country_code": "FR", "country_name": "France", "city": null, "postal": null, "latitude": 48.8582, "longitude": 2.3387000000000002, "IPv4": "54.36.148.127", "state": null}, "144.76.162.206": {"country_code": "DE", "country_name": "Germany", "city": null, "postal": null, "latitude": 51.2993, "longitude": 9.491, "IPv4": "144.76.162.206", "state": null}, "168.119.11.187": {"country_code": "US", "country_name": "United States", "city": null, "postal": null, "latitude": 37.751, "longitude": -97.822, "IPv4": "168.119.11.187", "state": null}, "175.139.79.241": {"country_code": "MY", "country_name": "Malaysia", "city": "Cheras", "postal": "56000", "latitude": 3.075, "longitude": 101.7382, "IPv4": "175.139.79.241", "state": "Selangor"}, "54.36.148.217": {"country_code": "FR", "country_name": "France", "city": null, "postal": null, "latitude": 48.8582, "longitude": 2.3387000000000002, "IPv4": "54.36.148.217", "state": null}, "54.36.148.128": {"country_code": "FR", "country_name": "France", "city": null, "postal": null, "latitude": 48.8582, "longitude": 2.3387000000000002, "IPv4": "54.36.148.128", "state": null}, "106.11.159.82": {"country_code": "CN", "country_name": "China", "city": null, "postal": null, "latitude": 30.2936, "longitude": 120.1614, "IPv4": "106.11.159.82", "state": "Zhejiang"}, "106.11.158.102": {"country_code": "CN", "country_name": "China", "city": null, "postal": null, "latitude": 30.2936, "longitude": 120.1614, "IPv4": "106.11.158.102", "state": "Zhejiang"}, "42.156.139.69": {"country_code": "CN", "country_name": "China", "city": null, "postal": null, "latitude": 30.2936, "longitude": 120.1614, "IPv4": "42.156.139.69", "state": "Zhejiang"}, "42.156.139.67": {"country_code": "CN", "country_name": "China", "city": null, "postal": null, "latitude": 30.2936, "longitude": 120.1614, "IPv4": "42.156.139.67", "state": "Zhejiang"}, "106.11.153.89": {"country_code": "CN", "country_name": "China", "city": null, "postal": null, "latitude": 30.2936, "longitude": 120.1614, "IPv4": "106.11.153.89", "state": "Zhejiang"}, "54.36.148.96": {"country_code": "FR", "country_name": "France", "city": null, "postal": null, "latitude": 48.8582, "longitude": 2.3387000000000002, "IPv4": "54.36.148.96", "state": null}, "54.36.148.22": {"country_code": "FR", "country_name": "France", "city": null, "postal": null, "latitude": 48.8582, "longitude": 2.3387000000000002, "IPv4": "54.36.148.22", "state": null}, "106.11.157.45": {"country_code": "CN", "country_name": "China", "city": null, "postal": null, "latitude": 30.2936, "longitude": 120.1614, "IPv4": "106.11.157.45", "state": "Zhejiang"}, "54.36.148.238": {"country_code": "FR", "country_name": "France", "city": null, "postal": null, "latitude": 48.8582, "longitude": 2.3387000000000002, "IPv4": "54.36.148.238", "state": null}, "104.237.141.147": {"country_code": "US", "country_name": "United States", "city": "Dallas", "postal": "75270", "latitude": 32.7787, "longitude": -96.8217, "IPv4": "104.237.141.147", "state": "Texas"}, "54.36.149.96": {"country_code": "FR", "country_name": "France", "city": null, "postal": null, "latitude": 48.8582, "longitude": 2.3387000000000002, "IPv4": "54.36.149.96", "state": null}, "104.237.141.184": {"country_code": "US", "country_name": "United States", "city": "Dallas", "postal": "75270", "latitude": 32.7787, "longitude": -96.8217, "IPv4": "104.237.141.184", "state": "Texas"}, "114.119.129.143": {"country_code": "CN", "country_name": "China", "city": null, "postal": null, "latitude": 34.7725, "longitude": 113.7266, "IPv4": "114.119.129.143", "state": null}, "66.208.176.34": {"country_code": "US", "country_name": "United States", "city": "Huntsville", "postal": "35824", "latitude": 34.6583, "longitude": -86.7295, "IPv4": "66.208.176.34", "state": "Alabama"}, "114.74.106.155": {"country_code": "AU", "country_name": "Australia", "city": "Sydney", "postal": "2060", "latitude": -33.839, "longitude": 151.2072, "IPv4": "114.74.106.155", "state": "New South Wales"}, "140.113.87.196": {"country_code": "TW", "country_name": "Taiwan", "city": "Taipei", "postal": null, "latitude": 25.0478, "longitude": 121.5318, "IPv4": "140.113.87.196", "state": "Taipei City"}, "54.36.148.120": {"country_code": "FR", "country_name": "France", "city": null, "postal": null, "latitude": 48.8582, "longitude": 2.3387000000000002, "IPv4": "54.36.148.120", "state": null}, "66.190.22.87": {"country_code": "US", "country_name": "United States", "city": "Fort Atkinson", "postal": "53538", "latitude": 42.9229, "longitude": -88.8467, "IPv4": "66.190.22.87", "state": "Wisconsin"}, "185.244.216.71": {"country_code": "NL", "country_name": "Netherlands", "city": null, "postal": null, "latitude": 52.3824, "longitude": 4.8995, "IPv4": "185.244.216.71", "state": null}, "106.11.158.105": {"country_code": "CN", "country_name": "China", "city": null, "postal": null, "latitude": 30.2936, "longitude": 120.1614, "IPv4": "106.11.158.105", "state": "Zhejiang"}, "54.36.148.255": {"country_code": "FR", "country_name": "France", "city": null, "postal": null, "latitude": 48.8582, "longitude": 2.3387000000000002, "IPv4": "54.36.148.255", "state": null}, "122.172.74.78": {"country_code": "IN", "country_name": "India", "city": "Bengaluru", "postal": "560076", "latitude": 12.9833, "longitude": 77.5833, "IPv4": "122.172.74.78", "state": "Karnataka"}, "42.156.139.98": {"country_code": "CN", "country_name": "China", "city": null, "postal": null, "latitude": 30.2936, "longitude": 120.1614, "IPv4": "42.156.139.98", "state": "Zhejiang"}, "54.36.148.1": {"country_code": "FR", "country_name": "France", "city": null, "postal": null, "latitude": 48.8582, "longitude": 2.3387000000000002, "IPv4": "54.36.148.1", "state": null}, "106.11.158.77": {"country_code": "CN", "country_name": "China", "city": null, "postal": null, "latitude": 30.2936, "longitude": 120.1614, "IPv4": "106.11.158.77", "state": "Zhejiang"}, "76.124.5.205": {"country_code": "US", "country_name": "United States", "city": "North Wales", "postal": "19454", "latitude": 40.2166, "longitude": -75.2565, "IPv4": "76.124.5.205", "state": "Pennsylvania"}, "116.179.32.144": {"country_code": "CN", "country_name": "China", "city": null, "postal": null, "latitude": 34.7725, "longitude": 113.7266, "IPv4": "116.179.32.144", "state": null}, "54.36.148.53": {"country_code": "FR", "country_name": "France", "city": null, "postal": null, "latitude": 48.8582, "longitude": 2.3387000000000002, "IPv4": "54.36.148.53", "state": null}, "202.3.77.207": {"country_code": "IN", "country_name": "India", "city": "Kanpur", "postal": "208001", "latitude": 26.4667, "longitude": 80.35, "IPv4": "202.3.77.207", "state": "Uttar Pradesh"}, "116.179.32.204": {"country_code": "CN", "country_name": "China", "city": null, "postal": null, "latitude": 34.7725, "longitude": 113.7266, "IPv4": "116.179.32.204", "state": null}, "185.191.171.25": {"country_code": "MD", "country_name": "Republic of Moldova", "city": null, "postal": null, "latitude": 47.0188, "longitude": 28.8128, "IPv4": "185.191.171.25", "state": null}, "54.36.148.125": {"country_code": "FR", "country_name": "France", "city": null, "postal": null, "latitude": 48.8582, "longitude": 2.3387000000000002, "IPv4": "54.36.148.125", "state": null}, "42.120.160.63": {"country_code": "CN", "country_name": "China", "city": null, "postal": null, "latitude": 30.2936, "longitude": 120.1614, "IPv4": "42.120.160.63", "state": "Zhejiang"}, "42.156.136.104": {"country_code": "CN", "country_name": "China", "city": null, "postal": null, "latitude": 30.2936, "longitude": 120.1614, "IPv4": "42.156.136.104", "state": "Zhejiang"}, "42.120.161.31": {"country_code": "CN", "country_name": "China", "city": null, "postal": null, "latitude": 30.2936, "longitude": 120.1614, "IPv4": "42.120.161.31", "state": "Zhejiang"}, "106.11.158.122": {"country_code": "CN", "country_name": "China", "city": null, "postal": null, "latitude": 30.2936, "longitude": 120.1614, "IPv4": "106.11.158.122", "state": "Zhejiang"}, "106.11.155.112": {"country_code": "CN", "country_name": "China", "city": null, "postal": null, "latitude": 30.2936, "longitude": 120.1614, "IPv4": "106.11.155.112", "state": "Zhejiang"}, "185.191.171.21": {"country_code": "MD", "country_name": "Republic of Moldova", "city": null, "postal": null, "latitude": 47.0188, "longitude": 28.8128, "IPv4": "185.191.171.21", "state": null}, "106.11.157.44": {"country_code": "CN", "country_name": "China", "city": null, "postal": null, "latitude": 30.2936, "longitude": 120.1614, "IPv4": "106.11.157.44", "state": "Zhejiang"}, "106.11.159.117": {"country_code": "CN", "country_name": "China", "city": null, "postal": null, "latitude": 30.2936, "longitude": 120.1614, "IPv4": "106.11.159.117", "state": "Zhejiang"}, "147.92.153.5": {"country_code": "JP", "country_name": "Japan", "city": null, "postal": null, "latitude": 35.69, "longitude": 139.69, "IPv4": "147.92.153.5", "state": null}, "106.11.157.47": {"country_code": "CN", "country_name": "China", "city": null, "postal": null, "latitude": 30.2936, "longitude": 120.1614, "IPv4": "106.11.157.47", "state": "Zhejiang"}, "77.88.5.124": {"country_code": "RU", "country_name": "Russia", "city": null, "postal": null, "latitude": 55.7386, "longitude": 37.6068, "IPv4": "77.88.5.124", "state": null}, "114.119.145.193": {"country_code": "CN", "country_name": "China", "city": null, "postal": null, "latitude": 34.7725, "longitude": 113.7266, "IPv4": "114.119.145.193", "state": null}, "47.29.168.176": {"country_code": "IN", "country_name": "India", "city": "Guwahati", "postal": "781012", "latitude": 26.1833, "longitude": 91.7333, "IPv4": "47.29.168.176", "state": "Assam"}, "112.79.192.234": {"country_code": "IN", "country_name": "India", "city": "Musafir-Khana", "postal": "227813", "latitude": 26.3667, "longitude": 81.8, "IPv4": "112.79.192.234", "state": "Uttar Pradesh"}, "106.11.157.106": {"country_code": "CN", "country_name": "China", "city": null, "postal": null, "latitude": 30.2936, "longitude": 120.1614, "IPv4": "106.11.157.106", "state": "Zhejiang"}, "72.49.7.146": {"country_code": "US", "country_name": "United States", "city": "Cincinnati", "postal": "45208", "latitude": 39.1361, "longitude": -84.4355, "IPv4": "72.49.7.146", "state": "Ohio"}, "110.159.182.149": {"country_code": "MY", "country_name": "Malaysia", "city": "Shah Alam", "postal": "40150", "latitude": 3.11, "longitude": 101.5538, "IPv4": "110.159.182.149", "state": "Selangor"}, "73.103.162.108": {"country_code": "US", "country_name": "United States", "city": null, "postal": null, "latitude": 37.751, "longitude": -97.822, "IPv4": "73.103.162.108", "state": null}, "106.11.156.44": {"country_code": "CN", "country_name": "China", "city": null, "postal": null, "latitude": 30.2936, "longitude": 120.1614, "IPv4": "106.11.156.44", "state": "Zhejiang"}, "54.36.148.133": {"country_code": "FR", "country_name": "France", "city": null, "postal": null, "latitude": 48.8582, "longitude": 2.3387000000000002, "IPv4": "54.36.148.133", "state": null}, "161.230.111.177": {"country_code": "PT", "country_name": "Portugal", "city": null, "postal": null, "latitude": 38.7139, "longitude": -9.1394, "IPv4": "161.230.111.177", "state": null}, "73.241.219.75": {"country_code": "US", "country_name": "United States", "city": "Dublin", "postal": "94568", "latitude": 37.7166, "longitude": -121.9226, "IPv4": "73.241.219.75", "state": "California"}, "157.55.39.130": {"country_code": "US", "country_name": "United States", "city": null, "postal": null, "latitude": 47.6062, "longitude": -122.3321, "IPv4": "157.55.39.130", "state": "Washington"}, "54.36.148.78": {"country_code": "FR", "country_name": "France", "city": null, "postal": null, "latitude": 48.8582, "longitude": 2.3387000000000002, "IPv4": "54.36.148.78", "state": null}, "114.119.137.85": {"country_code": "CN", "country_name": "China", "city": null, "postal": null, "latitude": 34.7725, "longitude": 113.7266, "IPv4": "114.119.137.85", "state": null}, "117.96.189.139": {"country_code": "IN", "country_name": "India", "city": null, "postal": null, "latitude": 20, "longitude": 77, "IPv4": "117.96.189.139", "state": null}, "54.36.148.154": {"country_code": "FR", "country_name": "France", "city": null, "postal": null, "latitude": 48.8582, "longitude": 2.3387000000000002, "IPv4": "54.36.148.154", "state": null}, "185.191.171.10": {"country_code": "MD", "country_name": "Republic of Moldova", "city": null, "postal": null, "latitude": 47.0188, "longitude": 28.8128, "IPv4": "185.191.171.10", "state": null}, "106.11.158.73": {"country_code": "CN", "country_name": "China", "city": null, "postal": null, "latitude": 30.2936, "longitude": 120.1614, "IPv4": "106.11.158.73", "state": "Zhejiang"}, "116.179.32.199": {"country_code": "CN", "country_name": "China", "city": null, "postal": null, "latitude": 34.7725, "longitude": 113.7266, "IPv4": "116.179.32.199", "state": null}, "116.179.32.217": {"country_code": "CN", "country_name": "China", "city": null, "postal": null, "latitude": 34.7725, "longitude": 113.7266, "IPv4": "116.179.32.217", "state": null}, "47.247.64.224": {"country_code": "IN", "country_name": "India", "city": "Indore", "postal": "452020", "latitude": 22.7167, "longitude": 75.8333, "IPv4": "47.247.64.224", "state": "Madhya Pradesh"}, "54.36.149.2": {"country_code": "FR", "country_name": "France", "city": null, "postal": null, "latitude": 48.8582, "longitude": 2.3387000000000002, "IPv4": "54.36.149.2", "state": null}, "42.156.137.115": {"country_code": "CN", "country_name": "China", "city": null, "postal": null, "latitude": 30.2936, "longitude": 120.1614, "IPv4": "42.156.137.115", "state": "Zhejiang"}, "129.138.168.182": {"country_code": "US", "country_name": "United States", "city": null, "postal": null, "latitude": 37.751, "longitude": -97.822, "IPv4": "129.138.168.182", "state": null}, "54.36.148.165": {"country_code": "FR", "country_name": "France", "city": null, "postal": null, "latitude": 48.8582, "longitude": 2.3387000000000002, "IPv4": "54.36.148.165", "state": null}, "17.58.62.4": {"country_code": "US", "country_name": "United States", "city": null, "postal": null, "latitude": 37.751, "longitude": -97.822, "IPv4": "17.58.62.4", "state": null}, "77.138.130.132": {"country_code": "IL", "country_name": "Israel", "city": "Haifa", "postal": null, "latitude": 32.8156, "longitude": 34.9892, "IPv4": "77.138.130.132", "state": "Haifa"}, "54.36.149.58": {"country_code": "FR", "country_name": "France", "city": null, "postal": null, "latitude": 48.8582, "longitude": 2.3387000000000002, "IPv4": "54.36.149.58", "state": null}, "54.36.149.79": {"country_code": "FR", "country_name": "France", "city": null, "postal": null, "latitude": 48.8582, "longitude": 2.3387000000000002, "IPv4": "54.36.149.79", "state": null}, "132.249.202.77": {"country_code": "US", "country_name": "United States", "city": null, "postal": null, "latitude": 37.751, "longitude": -97.822, "IPv4": "132.249.202.77", "state": null}, "147.92.153.1": {"country_code": "JP", "country_name": "Japan", "city": null, "postal": null, "latitude": 35.69, "longitude": 139.69, "IPv4": "147.92.153.1", "state": null}, "54.36.148.76": {"country_code": "FR", "country_name": "France", "city": null, "postal": null, "latitude": 48.8582, "longitude": 2.3387000000000002, "IPv4": "54.36.148.76", "state": null}, "157.42.116.136": {"country_code": "IN", "country_name": "India", "city": "Patna", "postal": "800002", "latitude": 25.6, "longitude": 85.1167, "IPv4": "157.42.116.136", "state": "Bihar"}, "114.119.128.67": {"country_code": "CN", "country_name": "China", "city": null, "postal": null, "latitude": 34.7725, "longitude": 113.7266, "IPv4": "114.119.128.67", "state": null}, "54.36.148.69": {"country_code": "FR", "country_name": "France", "city": null, "postal": null, "latitude": 48.8582, "longitude": 2.3387000000000002, "IPv4": "54.36.148.69", "state": null}, "54.36.149.102": {"country_code": "FR", "country_name": "France", "city": null, "postal": null, "latitude": 48.8582, "longitude": 2.3387000000000002, "IPv4": "54.36.149.102", "state": null}, "54.36.148.87": {"country_code": "FR", "country_name": "France", "city": null, "postal": null, "latitude": 48.8582, "longitude": 2.3387000000000002, "IPv4": "54.36.148.87", "state": null}, "54.36.148.188": {"country_code": "FR", "country_name": "France", "city": null, "postal": null, "latitude": 48.8582, "longitude": 2.3387000000000002, "IPv4": "54.36.148.188", "state": null}, "45.82.223.106": {"country_code": "Not found", "country_name": "Not found", "city": "Not found", "postal": "Not found", "latitude": "Not found", "longitude": "Not found", "IPv4": "Not found", "state": "Not found"}, "54.36.148.147": {"country_code": "FR", "country_name": "France", "city": null, "postal": null, "latitude": 48.8582, "longitude": 2.3387000000000002, "IPv4": "54.36.148.147", "state": null}, "107.23.45.127": {"country_code": "US", "country_name": "United States", "city": "Ashburn", "postal": "20149", "latitude": 39.0481, "longitude": -77.4728, "IPv4": "107.23.45.127", "state": "Virginia"}, "93.158.161.70": {"country_code": "RU", "country_name": "Russia", "city": null, "postal": null, "latitude": 55.7386, "longitude": 37.6068, "IPv4": "93.158.161.70", "state": null}, "93.158.161.26": {"country_code": "RU", "country_name": "Russia", "city": null, "postal": null, "latitude": 55.7386, "longitude": 37.6068, "IPv4": "93.158.161.26", "state": null}, "77.88.5.219": {"country_code": "RU", "country_name": "Russia", "city": null, "postal": null, "latitude": 55.7386, "longitude": 37.6068, "IPv4": "77.88.5.219", "state": null}, "54.36.148.152": {"country_code": "FR", "country_name": "France", "city": null, "postal": null, "latitude": 48.8582, "longitude": 2.3387000000000002, "IPv4": "54.36.148.152", "state": null}, "114.119.130.167": {"country_code": "CN", "country_name": "China", "city": null, "postal": null, "latitude": 34.7725, "longitude": 113.7266, "IPv4": "114.119.130.167", "state": null}, "116.179.32.212": {"country_code": "CN", "country_name": "China", "city": null, "postal": null, "latitude": 34.7725, "longitude": 113.7266, "IPv4": "116.179.32.212", "state": null}, "54.36.149.42": {"country_code": "FR", "country_name": "France", "city": null, "postal": null, "latitude": 48.8582, "longitude": 2.3387000000000002, "IPv4": "54.36.149.42", "state": null}, "77.88.5.171": {"country_code": "RU", "country_name": "Russia", "city": null, "postal": null, "latitude": 55.7386, "longitude": 37.6068, "IPv4": "77.88.5.171", "state": null}, "132.249.69.168": {"country_code": "US", "country_name": "United States", "city": null, "postal": null, "latitude": 37.751, "longitude": -97.822, "IPv4": "132.249.69.168", "state": null}, "54.36.148.138": {"country_code": "FR", "country_name": "France", "city": null, "postal": null, "latitude": 48.8582, "longitude": 2.3387000000000002, "IPv4": "54.36.148.138", "state": null}, "54.36.148.130": {"country_code": "FR", "country_name": "France", "city": null, "postal": null, "latitude": 48.8582, "longitude": 2.3387000000000002, "IPv4": "54.36.148.130", "state": null}, "5.188.210.58": {"country_code": "RU", "country_name": "Russia", "city": "Moscow", "postal": "102292", "latitude": 55.7522, "longitude": 37.6156, "IPv4": "5.188.210.58", "state": "Moscow"}, "45.114.7.46": {"country_code": "SG", "country_name": "Singapore", "city": "Singapore", "postal": null, "latitude": 1.2931, "longitude": 103.8558, "IPv4": "45.114.7.46", "state": "Central Singapore Community Development Council"}, "54.36.149.54": {"country_code": "FR", "country_name": "France", "city": null, "postal": null, "latitude": 48.8582, "longitude": 2.3387000000000002, "IPv4": "54.36.149.54", "state": null}, "118.101.234.9": {"country_code": "MY", "country_name": "Malaysia", "city": "Petaling Jaya", "postal": "47300", "latitude": 3.1097, "longitude": 101.6171, "IPv4": "118.101.234.9", "state": "Selangor"}, "116.179.32.242": {"country_code": "CN", "country_name": "China", "city": null, "postal": null, "latitude": 34.7725, "longitude": 113.7266, "IPv4": "116.179.32.242", "state": null}, "54.36.148.32": {"country_code": "FR", "country_name": "France", "city": null, "postal": null, "latitude": 48.8582, "longitude": 2.3387000000000002, "IPv4": "54.36.148.32", "state": null}, "54.36.149.53": {"country_code": "FR", "country_name": "France", "city": null, "postal": null, "latitude": 48.8582, "longitude": 2.3387000000000002, "IPv4": "54.36.149.53", "state": null}, "147.92.153.7": {"country_code": "JP", "country_name": "Japan", "city": null, "postal": null, "latitude": 35.69, "longitude": 139.69, "IPv4": "147.92.153.7", "state": null}, "114.119.139.78": {"country_code": "CN", "country_name": "China", "city": null, "postal": null, "latitude": 34.7725, "longitude": 113.7266, "IPv4": "114.119.139.78", "state": null}, "54.36.148.177": {"country_code": "FR", "country_name": "France", "city": null, "postal": null, "latitude": 48.8582, "longitude": 2.3387000000000002, "IPv4": "54.36.148.177", "state": null}, "207.46.13.1": {"country_code": "US", "country_name": "United States", "city": null, "postal": null, "latitude": 47.6062, "longitude": -122.3321, "IPv4": "207.46.13.1", "state": "Washington"}, "131.247.226.7": {"country_code": "US", "country_name": "United States", "city": "Tampa", "postal": "33620", "latitude": 28.06, "longitude": -82.4079, "IPv4": "131.247.226.7", "state": "Florida"}, "185.191.171.36": {"country_code": "MD", "country_name": "Republic of Moldova", "city": null, "postal": null, "latitude": 47.0188, "longitude": 28.8128, "IPv4": "185.191.171.36", "state": null}, "54.36.148.129": {"country_code": "FR", "country_name": "France", "city": null, "postal": null, "latitude": 48.8582, "longitude": 2.3387000000000002, "IPv4": "54.36.148.129", "state": null}, "116.179.32.19": {"country_code": "CN", "country_name": "China", "city": null, "postal": null, "latitude": 34.7725, "longitude": 113.7266, "IPv4": "116.179.32.19", "state": null}, "114.119.131.88": {"country_code": "CN", "country_name": "China", "city": null, "postal": null, "latitude": 34.7725, "longitude": 113.7266, "IPv4": "114.119.131.88", "state": null}, "54.36.148.179": {"country_code": "FR", "country_name": "France", "city": null, "postal": null, "latitude": 48.8582, "longitude": 2.3387000000000002, "IPv4": "54.36.148.179", "state": null}, "85.31.186.210": {"country_code": "DE", "country_name": "Germany", "city": null, "postal": null, "latitude": 51.2993, "longitude": 9.491, "IPv4": "85.31.186.210", "state": null}, "54.36.149.98": {"country_code": "FR", "country_name": "France", "city": null, "postal": null, "latitude": 48.8582, "longitude": 2.3387000000000002, "IPv4": "54.36.149.98", "state": null}, "185.191.171.14": {"country_code": "MD", "country_name": "Republic of Moldova", "city": null, "postal": null, "latitude": 47.0188, "longitude": 28.8128, "IPv4": "185.191.171.14", "state": null}, "54.36.149.50": {"country_code": "FR", "country_name": "France", "city": null, "postal": null, "latitude": 48.8582, "longitude": 2.3387000000000002, "IPv4": "54.36.149.50", "state": null}, "54.36.148.115": {"country_code": "FR", "country_name": "France", "city": null, "postal": null, "latitude": 48.8582, "longitude": 2.3387000000000002, "IPv4": "54.36.148.115", "state": null}, "54.36.148.247": {"country_code": "FR", "country_name": "France", "city": null, "postal": null, "latitude": 48.8582, "longitude": 2.3387000000000002, "IPv4": "54.36.148.247", "state": null}, "185.191.171.42": {"country_code": "MD", "country_name": "Republic of Moldova", "city": null, "postal": null, "latitude": 47.0188, "longitude": 28.8128, "IPv4": "185.191.171.42", "state": null}, "54.36.148.143": {"country_code": "FR", "country_name": "France", "city": null, "postal": null, "latitude": 48.8582, "longitude": 2.3387000000000002, "IPv4": "54.36.148.143", "state": null}, "147.92.153.20": {"country_code": "JP", "country_name": "Japan", "city": null, "postal": null, "latitude": 35.69, "longitude": 139.69, "IPv4": "147.92.153.20", "state": null}, "54.36.148.140": {"country_code": "FR", "country_name": "France", "city": null, "postal": null, "latitude": 48.8582, "longitude": 2.3387000000000002, "IPv4": "54.36.148.140", "state": null}, "54.36.148.139": {"country_code": "FR", "country_name": "France", "city": null, "postal": null, "latitude": 48.8582, "longitude": 2.3387000000000002, "IPv4": "54.36.148.139", "state": null}, "116.179.32.17": {"country_code": "CN", "country_name": "China", "city": null, "postal": null, "latitude": 34.7725, "longitude": 113.7266, "IPv4": "116.179.32.17", "state": null}, "54.36.148.132": {"country_code": "FR", "country_name": "France", "city": null, "postal": null, "latitude": 48.8582, "longitude": 2.3387000000000002, "IPv4": "54.36.148.132", "state": null}, "54.36.149.82": {"country_code": "FR", "country_name": "France", "city": null, "postal": null, "latitude": 48.8582, "longitude": 2.3387000000000002, "IPv4": "54.36.149.82", "state": null}, "195.154.242.89": {"country_code": "FR", "country_name": "France", "city": "Vitry-sur-Seine", "postal": "94400", "latitude": 48.7872, "longitude": 2.4032999999999998, "IPv4": "195.154.242.89", "state": "Val-de-Marne"}, "54.36.148.39": {"country_code": "FR", "country_name": "France", "city": null, "postal": null, "latitude": 48.8582, "longitude": 2.3387000000000002, "IPv4": "54.36.148.39", "state": null}, "54.36.148.214": {"country_code": "FR", "country_name": "France", "city": null, "postal": null, "latitude": 48.8582, "longitude": 2.3387000000000002, "IPv4": "54.36.148.214", "state": null}, "54.36.148.31": {"country_code": "FR", "country_name": "France", "city": null, "postal": null, "latitude": 48.8582, "longitude": 2.3387000000000002, "IPv4": "54.36.148.31", "state": null}, "114.119.158.182": {"country_code": "CN", "country_name": "China", "city": null, "postal": null, "latitude": 34.7725, "longitude": 113.7266, "IPv4": "114.119.158.182", "state": null}, "154.28.188.216": {"country_code": "US", "country_name": "United States", "city": null, "postal": null, "latitude": 37.751, "longitude": -97.822, "IPv4": "154.28.188.216", "state": null}, "185.191.171.13": {"country_code": "MD", "country_name": "Republic of Moldova", "city": null, "postal": null, "latitude": 47.0188, "longitude": 28.8128, "IPv4": "185.191.171.13", "state": null}, "185.191.171.19": {"country_code": "MD", "country_name": "Republic of Moldova", "city": null, "postal": null, "latitude": 47.0188, "longitude": 28.8128, "IPv4": "185.191.171.19", "state": null}, "54.36.148.216": {"country_code": "FR", "country_name": "France", "city": null, "postal": null, "latitude": 48.8582, "longitude": 2.3387000000000002, "IPv4": "54.36.148.216", "state": null}, "54.36.149.16": {"country_code": "FR", "country_name": "France", "city": null, "postal": null, "latitude": 48.8582, "longitude": 2.3387000000000002, "IPv4": "54.36.149.16", "state": null}, "54.36.148.134": {"country_code": "FR", "country_name": "France", "city": null, "postal": null, "latitude": 48.8582, "longitude": 2.3387000000000002, "IPv4": "54.36.148.134", "state": null}, "104.192.5.49": {"country_code": "US", "country_name": "United States", "city": "Wayne", "postal": "19087", "latitude": 40.0612, "longitude": -75.3999, "IPv4": "104.192.5.49", "state": "Pennsylvania"}, "54.36.149.61": {"country_code": "FR", "country_name": "France", "city": null, "postal": null, "latitude": 48.8582, "longitude": 2.3387000000000002, "IPv4": "54.36.149.61", "state": null}, "54.36.149.12": {"country_code": "FR", "country_name": "France", "city": null, "postal": null, "latitude": 48.8582, "longitude": 2.3387000000000002, "IPv4": "54.36.149.12", "state": null}, "220.181.108.115": {"country_code": "CN", "country_name": "China", "city": "Beijing", "postal": null, "latitude": 39.9288, "longitude": 116.3889, "IPv4": "220.181.108.115", "state": "Beijing"}, "54.36.149.91": {"country_code": "FR", "country_name": "France", "city": null, "postal": null, "latitude": 48.8582, "longitude": 2.3387000000000002, "IPv4": "54.36.149.91", "state": null}, "185.191.171.15": {"country_code": "MD", "country_name": "Republic of Moldova", "city": null, "postal": null, "latitude": 47.0188, "longitude": 28.8128, "IPv4": "185.191.171.15", "state": null}, "220.181.108.83": {"country_code": "CN", "country_name": "China", "city": "Beijing", "postal": null, "latitude": 39.9288, "longitude": 116.3889, "IPv4": "220.181.108.83", "state": "Beijing"}, "54.36.148.208": {"country_code": "FR", "country_name": "France", "city": null, "postal": null, "latitude": 48.8582, "longitude": 2.3387000000000002, "IPv4": "54.36.148.208", "state": null}, "17.58.98.170": {"country_code": "US", "country_name": "United States", "city": null, "postal": null, "latitude": 37.751, "longitude": -97.822, "IPv4": "17.58.98.170", "state": null}, "54.36.148.90": {"country_code": "FR", "country_name": "France", "city": null, "postal": null, "latitude": 48.8582, "longitude": 2.3387000000000002, "IPv4": "54.36.148.90", "state": null}, "54.36.148.126": {"country_code": "FR", "country_name": "France", "city": null, "postal": null, "latitude": 48.8582, "longitude": 2.3387000000000002, "IPv4": "54.36.148.126", "state": null}, "116.179.32.101": {"country_code": "CN", "country_name": "China", "city": null, "postal": null, "latitude": 34.7725, "longitude": 113.7266, "IPv4": "116.179.32.101", "state": null}, "115.132.162.191": {"country_code": "MY", "country_name": "Malaysia", "city": "Sibu", "postal": "96000", "latitude": 2.2086, "longitude": 111.6, "IPv4": "115.132.162.191", "state": "Sarawak"}, "114.119.138.77": {"country_code": "CN", "country_name": "China", "city": null, "postal": null, "latitude": 34.7725, "longitude": 113.7266, "IPv4": "114.119.138.77", "state": null}, "70.75.130.248": {"country_code": "CA", "country_name": "Canada", "city": "Calgary", "postal": "T2E", "latitude": 51.0876, "longitude": -114.0214, "IPv4": "70.75.130.248", "state": "Alberta"}, "185.191.171.44": {"country_code": "MD", "country_name": "Republic of Moldova", "city": null, "postal": null, "latitude": 47.0188, "longitude": 28.8128, "IPv4": "185.191.171.44", "state": null}, "223.228.226.3": {"country_code": "IN", "country_name": "India", "city": null, "postal": null, "latitude": 20, "longitude": 77, "IPv4": "223.228.226.3", "state": null}, "191.102.164.138": {"country_code": "US", "country_name": "United States", "city": null, "postal": null, "latitude": 37.751, "longitude": -97.822, "IPv4": "191.102.164.138", "state": null}, "54.36.148.97": {"country_code": "FR", "country_name": "France", "city": null, "postal": null, "latitude": 48.8582, "longitude": 2.3387000000000002, "IPv4": "54.36.148.97", "state": null}, "207.46.13.47": {"country_code": "US", "country_name": "United States", "city": null, "postal": null, "latitude": 47.6062, "longitude": -122.3321, "IPv4": "207.46.13.47", "state": "Washington"}, "54.36.148.241": {"country_code": "FR", "country_name": "France", "city": null, "postal": null, "latitude": 48.8582, "longitude": 2.3387000000000002, "IPv4": "54.36.148.241", "state": null}, "216.244.66.241": {"country_code": "US", "country_name": "United States", "city": "Lake Stevens", "postal": "98258", "latitude": 48.0171, "longitude": -122.0672, "IPv4": "216.244.66.241", "state": "Washington"}, "24.30.114.58": {"country_code": "US", "country_name": "United States", "city": "Atlanta", "postal": "30342", "latitude": 33.8842, "longitude": -84.3761, "IPv4": "24.30.114.58", "state": "Georgia"}, "220.181.108.160": {"country_code": "CN", "country_name": "China", "city": "Beijing", "postal": null, "latitude": 39.9288, "longitude": 116.3889, "IPv4": "220.181.108.160", "state": "Beijing"}, "54.36.148.37": {"country_code": "FR", "country_name": "France", "city": null, "postal": null, "latitude": 48.8582, "longitude": 2.3387000000000002, "IPv4": "54.36.148.37", "state": null}, "220.181.108.174": {"country_code": "CN", "country_name": "China", "city": "Beijing", "postal": null, "latitude": 39.9288, "longitude": 116.3889, "IPv4": "220.181.108.174", "state": "Beijing"}, "147.92.153.18": {"country_code": "JP", "country_name": "Japan", "city": null, "postal": null, "latitude": 35.69, "longitude": 139.69, "IPv4": "147.92.153.18", "state": null}, "114.119.158.234": {"country_code": "CN", "country_name": "China", "city": null, "postal": null, "latitude": 34.7725, "longitude": 113.7266, "IPv4": "114.119.158.234", "state": null}, "54.36.148.153": {"country_code": "FR", "country_name": "France", "city": null, "postal": null, "latitude": 48.8582, "longitude": 2.3387000000000002, "IPv4": "54.36.148.153", "state": null}, "54.36.148.237": {"country_code": "FR", "country_name": "France", "city": null, "postal": null, "latitude": 48.8582, "longitude": 2.3387000000000002, "IPv4": "54.36.148.237", "state": null}, "54.36.149.26": {"country_code": "FR", "country_name": "France", "city": null, "postal": null, "latitude": 48.8582, "longitude": 2.3387000000000002, "IPv4": "54.36.149.26", "state": null}, "54.36.148.192": {"country_code": "FR", "country_name": "France", "city": null, "postal": null, "latitude": 48.8582, "longitude": 2.3387000000000002, "IPv4": "54.36.148.192", "state": null}, "195.201.159.187": {"country_code": "DE", "country_name": "Germany", "city": null, "postal": null, "latitude": 51.2993, "longitude": 9.491, "IPv4": "195.201.159.187", "state": null}, "185.191.171.37": {"country_code": "MD", "country_name": "Republic of Moldova", "city": null, "postal": null, "latitude": 47.0188, "longitude": 28.8128, "IPv4": "185.191.171.37", "state": null}, "54.36.149.40": {"country_code": "FR", "country_name": "France", "city": null, "postal": null, "latitude": 48.8582, "longitude": 2.3387000000000002, "IPv4": "54.36.149.40", "state": null}, "185.191.171.24": {"country_code": "MD", "country_name": "Republic of Moldova", "city": null, "postal": null, "latitude": 47.0188, "longitude": 28.8128, "IPv4": "185.191.171.24", "state": null}, "107.23.92.82": {"country_code": "US", "country_name": "United States", "city": "Ashburn", "postal": "20149", "latitude": 39.0481, "longitude": -77.4728, "IPv4": "107.23.92.82", "state": "Virginia"}, "54.36.149.23": {"country_code": "FR", "country_name": "France", "city": null, "postal": null, "latitude": 48.8582, "longitude": 2.3387000000000002, "IPv4": "54.36.149.23", "state": null}, "41.42.200.253": {"country_code": "EG", "country_name": "Egypt", "city": "Al Mansurah", "postal": null, "latitude": 31.0364, "longitude": 31.3807, "IPv4": "41.42.200.253", "state": "Dakahlia"}, "54.36.149.83": {"country_code": "FR", "country_name": "France", "city": null, "postal": null, "latitude": 48.8582, "longitude": 2.3387000000000002, "IPv4": "54.36.149.83", "state": null}, "54.36.149.69": {"country_code": "FR", "country_name": "France", "city": null, "postal": null, "latitude": 48.8582, "longitude": 2.3387000000000002, "IPv4": "54.36.149.69", "state": null}, "220.181.108.100": {"country_code": "CN", "country_name": "China", "city": "Beijing", "postal": null, "latitude": 39.9288, "longitude": 116.3889, "IPv4": "220.181.108.100", "state": "Beijing"}, "220.181.108.87": {"country_code": "CN", "country_name": "China", "city": "Beijing", "postal": null, "latitude": 39.9288, "longitude": 116.3889, "IPv4": "220.181.108.87", "state": "Beijing"}, "54.36.149.62": {"country_code": "FR", "country_name": "France", "city": null, "postal": null, "latitude": 48.8582, "longitude": 2.3387000000000002, "IPv4": "54.36.149.62", "state": null}, "185.153.150.19": {"country_code": "ES", "country_name": "Spain", "city": null, "postal": null, "latitude": 40.4172, "longitude": -3.684, "IPv4": "185.153.150.19", "state": null}, "185.191.171.17": {"country_code": "MD", "country_name": "Republic of Moldova", "city": null, "postal": null, "latitude": 47.0188, "longitude": 28.8128, "IPv4": "185.191.171.17", "state": null}, "114.119.159.20": {"country_code": "CN", "country_name": "China", "city": null, "postal": null, "latitude": 34.7725, "longitude": 113.7266, "IPv4": "114.119.159.20", "state": null}, "193.142.146.202": {"country_code": "Not found", "country_name": "Not found", "city": "Not found", "postal": "Not found", "latitude": "Not found", "longitude": "Not found", "IPv4": "Not found", "state": "Not found"}, "47.29.155.239": {"country_code": "IN", "country_name": "India", "city": "Guwahati", "postal": "781028", "latitude": 26.1833, "longitude": 91.7333, "IPv4": "47.29.155.239", "state": "Assam"}, "54.36.149.60": {"country_code": "FR", "country_name": "France", "city": null, "postal": null, "latitude": 48.8582, "longitude": 2.3387000000000002, "IPv4": "54.36.149.60", "state": null}, "54.36.148.171": {"country_code": "FR", "country_name": "France", "city": null, "postal": null, "latitude": 48.8582, "longitude": 2.3387000000000002, "IPv4": "54.36.148.171", "state": null}, "157.55.39.224": {"country_code": "US", "country_name": "United States", "city": null, "postal": null, "latitude": 47.6062, "longitude": -122.3321, "IPv4": "157.55.39.224", "state": "Washington"}, "54.36.148.40": {"country_code": "FR", "country_name": "France", "city": null, "postal": null, "latitude": 48.8582, "longitude": 2.3387000000000002, "IPv4": "54.36.148.40", "state": null}, "54.36.148.4": {"country_code": "FR", "country_name": "France", "city": null, "postal": null, "latitude": 48.8582, "longitude": 2.3387000000000002, "IPv4": "54.36.148.4", "state": null}, "54.36.148.73": {"country_code": "FR", "country_name": "France", "city": null, "postal": null, "latitude": 48.8582, "longitude": 2.3387000000000002, "IPv4": "54.36.148.73", "state": null}, "54.36.148.6": {"country_code": "FR", "country_name": "France", "city": null, "postal": null, "latitude": 48.8582, "longitude": 2.3387000000000002, "IPv4": "54.36.148.6", "state": null}, "104.237.136.161": {"country_code": "US", "country_name": "United States", "city": "Dallas", "postal": "75270", "latitude": 32.7787, "longitude": -96.8217, "IPv4": "104.237.136.161", "state": "Texas"}, "23.239.26.240": {"country_code": "US", "country_name": "United States", "city": "Dallas", "postal": "75270", "latitude": 32.7787, "longitude": -96.8217, "IPv4": "23.239.26.240", "state": "Texas"}, "157.55.39.57": {"country_code": "US", "country_name": "United States", "city": null, "postal": null, "latitude": 47.6062, "longitude": -122.3321, "IPv4": "157.55.39.57", "state": "Washington"}, "116.179.32.91": {"country_code": "CN", "country_name": "China", "city": null, "postal": null, "latitude": 34.7725, "longitude": 113.7266, "IPv4": "116.179.32.91", "state": null}, "1.39.190.208": {"country_code": "IN", "country_name": "India", "city": "Bellary", "postal": "583101", "latitude": 15.15, "longitude": 76.9333, "IPv4": "1.39.190.208", "state": "Karnataka"}, "116.179.32.149": {"country_code": "CN", "country_name": "China", "city": null, "postal": null, "latitude": 34.7725, "longitude": 113.7266, "IPv4": "116.179.32.149", "state": null}, "54.36.149.95": {"country_code": "FR", "country_name": "France", "city": null, "postal": null, "latitude": 48.8582, "longitude": 2.3387000000000002, "IPv4": "54.36.149.95", "state": null}, "54.36.148.197": {"country_code": "FR", "country_name": "France", "city": null, "postal": null, "latitude": 48.8582, "longitude": 2.3387000000000002, "IPv4": "54.36.148.197", "state": null}, "54.36.148.10": {"country_code": "FR", "country_name": "France", "city": null, "postal": null, "latitude": 48.8582, "longitude": 2.3387000000000002, "IPv4": "54.36.148.10", "state": null}, "147.92.153.14": {"country_code": "JP", "country_name": "Japan", "city": null, "postal": null, "latitude": 35.69, "longitude": 139.69, "IPv4": "147.92.153.14", "state": null}, "114.119.149.23": {"country_code": "CN", "country_name": "China", "city": null, "postal": null, "latitude": 34.7725, "longitude": 113.7266, "IPv4": "114.119.149.23", "state": null}, "87.4.216.197": {"country_code": "IT", "country_name": "Italy", "city": "Beinasco", "postal": "10092", "latitude": 45.0247, "longitude": 7.5856, "IPv4": "87.4.216.197", "state": "Turin"}, "157.44.93.71": {"country_code": "IN", "country_name": "India", "city": "Malakpet", "postal": "505301", "latitude": 17.3775, "longitude": 78.5027, "IPv4": "157.44.93.71", "state": "Telangana"}, "77.182.172.17": {"country_code": "DE", "country_name": "Germany", "city": "Mainz", "postal": "55127", "latitude": 50, "longitude": 8.2711, "IPv4": "77.182.172.17", "state": "Rheinland-Pfalz"}, "54.36.148.182": {"country_code": "FR", "country_name": "France", "city": null, "postal": null, "latitude": 48.8582, "longitude": 2.3387000000000002, "IPv4": "54.36.148.182", "state": null}, "54.36.148.44": {"country_code": "FR", "country_name": "France", "city": null, "postal": null, "latitude": 48.8582, "longitude": 2.3387000000000002, "IPv4": "54.36.148.44", "state": null}, "5.160.121.194": {"country_code": "IR", "country_name": "Iran", "city": null, "postal": null, "latitude": 35.6961, "longitude": 51.4231, "IPv4": "5.160.121.194", "state": null}, "126.94.237.153": {"country_code": "JP", "country_name": "Japan", "city": null, "postal": null, "latitude": 35.69, "longitude": 139.69, "IPv4": "126.94.237.153", "state": null}, "54.36.149.41": {"country_code": "FR", "country_name": "France", "city": null, "postal": null, "latitude": 48.8582, "longitude": 2.3387000000000002, "IPv4": "54.36.149.41", "state": null}, "116.179.32.207": {"country_code": "CN", "country_name": "China", "city": null, "postal": null, "latitude": 34.7725, "longitude": 113.7266, "IPv4": "116.179.32.207", "state": null}, "114.119.145.187": {"country_code": "CN", "country_name": "China", "city": null, "postal": null, "latitude": 34.7725, "longitude": 113.7266, "IPv4": "114.119.145.187", "state": null}, "54.36.149.15": {"country_code": "FR", "country_name": "France", "city": null, "postal": null, "latitude": 48.8582, "longitude": 2.3387000000000002, "IPv4": "54.36.149.15", "state": null}, "116.179.32.92": {"country_code": "CN", "country_name": "China", "city": null, "postal": null, "latitude": 34.7725, "longitude": 113.7266, "IPv4": "116.179.32.92", "state": null}, "54.36.149.4": {"country_code": "FR", "country_name": "France", "city": null, "postal": null, "latitude": 48.8582, "longitude": 2.3387000000000002, "IPv4": "54.36.149.4", "state": null}, "54.36.149.6": {"country_code": "FR", "country_name": "France", "city": null, "postal": null, "latitude": 48.8582, "longitude": 2.3387000000000002, "IPv4": "54.36.149.6", "state": null}, "54.36.148.162": {"country_code": "FR", "country_name": "France", "city": null, "postal": null, "latitude": 48.8582, "longitude": 2.3387000000000002, "IPv4": "54.36.148.162", "state": null}, "114.119.128.179": {"country_code": "CN", "country_name": "China", "city": null, "postal": null, "latitude": 34.7725, "longitude": 113.7266, "IPv4": "114.119.128.179", "state": null}, "54.36.148.33": {"country_code": "FR", "country_name": "France", "city": null, "postal": null, "latitude": 48.8582, "longitude": 2.3387000000000002, "IPv4": "54.36.148.33", "state": null}, "54.36.148.123": {"country_code": "FR", "country_name": "France", "city": null, "postal": null, "latitude": 48.8582, "longitude": 2.3387000000000002, "IPv4": "54.36.148.123", "state": null}, "54.36.149.14": {"country_code": "FR", "country_name": "France", "city": null, "postal": null, "latitude": 48.8582, "longitude": 2.3387000000000002, "IPv4": "54.36.149.14", "state": null}, "185.191.171.43": {"country_code": "MD", "country_name": "Republic of Moldova", "city": null, "postal": null, "latitude": 47.0188, "longitude": 28.8128, "IPv4": "185.191.171.43", "state": null}, "116.179.32.104": {"country_code": "CN", "country_name": "China", "city": null, "postal": null, "latitude": 34.7725, "longitude": 113.7266, "IPv4": "116.179.32.104", "state": null}, "185.191.171.18": {"country_code": "MD", "country_name": "Republic of Moldova", "city": null, "postal": null, "latitude": 47.0188, "longitude": 28.8128, "IPv4": "185.191.171.18", "state": null}, "54.36.149.75": {"country_code": "FR", "country_name": "France", "city": null, "postal": null, "latitude": 48.8582, "longitude": 2.3387000000000002, "IPv4": "54.36.149.75", "state": null}, "116.179.32.214": {"country_code": "CN", "country_name": "China", "city": null, "postal": null, "latitude": 34.7725, "longitude": 113.7266, "IPv4": "116.179.32.214", "state": null}, "54.36.148.205": {"country_code": "FR", "country_name": "France", "city": null, "postal": null, "latitude": 48.8582, "longitude": 2.3387000000000002, "IPv4": "54.36.148.205", "state": null}, "116.179.32.230": {"country_code": "CN", "country_name": "China", "city": null, "postal": null, "latitude": 34.7725, "longitude": 113.7266, "IPv4": "116.179.32.230", "state": null}, "114.119.150.140": {"country_code": "CN", "country_name": "China", "city": null, "postal": null, "latitude": 34.7725, "longitude": 113.7266, "IPv4": "114.119.150.140", "state": null}, "54.36.148.54": {"country_code": "FR", "country_name": "France", "city": null, "postal": null, "latitude": 48.8582, "longitude": 2.3387000000000002, "IPv4": "54.36.148.54", "state": null}, "49.195.192.161": {"country_code": "AU", "country_name": "Australia", "city": "Alexandria", "postal": "2015", "latitude": -33.9022, "longitude": 151.2004, "IPv4": "49.195.192.161", "state": "New South Wales"}, "116.179.32.45": {"country_code": "CN", "country_name": "China", "city": null, "postal": null, "latitude": 34.7725, "longitude": 113.7266, "IPv4": "116.179.32.45", "state": null}, "54.36.148.184": {"country_code": "FR", "country_name": "France", "city": null, "postal": null, "latitude": 48.8582, "longitude": 2.3387000000000002, "IPv4": "54.36.148.184", "state": null}, "104.237.137.166": {"country_code": "US", "country_name": "United States", "city": "Dallas", "postal": "75270", "latitude": 32.7787, "longitude": -96.8217, "IPv4": "104.237.137.166", "state": "Texas"}, "173.255.193.207": {"country_code": "US", "country_name": "United States", "city": "Dallas", "postal": "75270", "latitude": 32.7787, "longitude": -96.8217, "IPv4": "173.255.193.207", "state": "Texas"}, "54.36.148.64": {"country_code": "FR", "country_name": "France", "city": null, "postal": null, "latitude": 48.8582, "longitude": 2.3387000000000002, "IPv4": "54.36.148.64", "state": null}, "54.38.41.222": {"country_code": "FR", "country_name": "France", "city": null, "postal": null, "latitude": 48.8582, "longitude": 2.3387000000000002, "IPv4": "54.38.41.222", "state": null}, "114.119.140.178": {"country_code": "CN", "country_name": "China", "city": null, "postal": null, "latitude": 34.7725, "longitude": 113.7266, "IPv4": "114.119.140.178", "state": null}, "185.191.171.38": {"country_code": "MD", "country_name": "Republic of Moldova", "city": null, "postal": null, "latitude": 47.0188, "longitude": 28.8128, "IPv4": "185.191.171.38", "state": null}, "54.36.148.169": {"country_code": "FR", "country_name": "France", "city": null, "postal": null, "latitude": 48.8582, "longitude": 2.3387000000000002, "IPv4": "54.36.148.169", "state": null}, "54.36.149.31": {"country_code": "FR", "country_name": "France", "city": null, "postal": null, "latitude": 48.8582, "longitude": 2.3387000000000002, "IPv4": "54.36.149.31", "state": null}, "116.179.32.146": {"country_code": "CN", "country_name": "China", "city": null, "postal": null, "latitude": 34.7725, "longitude": 113.7266, "IPv4": "116.179.32.146", "state": null}, "157.55.39.97": {"country_code": "US", "country_name": "United States", "city": null, "postal": null, "latitude": 47.6062, "longitude": -122.3321, "IPv4": "157.55.39.97", "state": "Washington"}, "128.46.102.98": {"country_code": "US", "country_name": "United States", "city": "West Lafayette", "postal": "47907", "latitude": 40.4249, "longitude": -86.9162, "IPv4": "128.46.102.98", "state": "Indiana"}, "54.36.148.41": {"country_code": "FR", "country_name": "France", "city": null, "postal": null, "latitude": 48.8582, "longitude": 2.3387000000000002, "IPv4": "54.36.148.41", "state": null}, "54.36.148.144": {"country_code": "FR", "country_name": "France", "city": null, "postal": null, "latitude": 48.8582, "longitude": 2.3387000000000002, "IPv4": "54.36.148.144", "state": null}, "124.40.247.86": {"country_code": "IN", "country_name": "India", "city": "Bengaluru", "postal": "560055", "latitude": 12.9833, "longitude": 77.5833, "IPv4": "124.40.247.86", "state": "Karnataka"}, "54.36.148.248": {"country_code": "FR", "country_name": "France", "city": null, "postal": null, "latitude": 48.8582, "longitude": 2.3387000000000002, "IPv4": "54.36.148.248", "state": null}, "115.132.178.237": {"country_code": "MY", "country_name": "Malaysia", "city": "Ipoh", "postal": "31450", "latitude": 4.5841, "longitude": 101.0829, "IPv4": "115.132.178.237", "state": "Perak"}, "185.191.171.2": {"country_code": "MD", "country_name": "Republic of Moldova", "city": null, "postal": null, "latitude": 47.0188, "longitude": 28.8128, "IPv4": "185.191.171.2", "state": null}, "114.119.136.251": {"country_code": "CN", "country_name": "China", "city": null, "postal": null, "latitude": 34.7725, "longitude": 113.7266, "IPv4": "114.119.136.251", "state": null}, "207.46.13.113": {"country_code": "US", "country_name": "United States", "city": null, "postal": null, "latitude": 47.6062, "longitude": -122.3321, "IPv4": "207.46.13.113", "state": "Washington"}, "54.36.148.46": {"country_code": "FR", "country_name": "France", "city": null, "postal": null, "latitude": 48.8582, "longitude": 2.3387000000000002, "IPv4": "54.36.148.46", "state": null}, "54.36.149.66": {"country_code": "FR", "country_name": "France", "city": null, "postal": null, "latitude": 48.8582, "longitude": 2.3387000000000002, "IPv4": "54.36.149.66", "state": null}, "147.92.153.6": {"country_code": "JP", "country_name": "Japan", "city": null, "postal": null, "latitude": 35.69, "longitude": 139.69, "IPv4": "147.92.153.6", "state": null}, "220.181.108.159": {"country_code": "CN", "country_name": "China", "city": "Beijing", "postal": null, "latitude": 39.9288, "longitude": 116.3889, "IPv4": "220.181.108.159", "state": "Beijing"}, "114.119.129.50": {"country_code": "CN", "country_name": "China", "city": null, "postal": null, "latitude": 34.7725, "longitude": 113.7266, "IPv4": "114.119.129.50", "state": null}, "220.181.108.77": {"country_code": "CN", "country_name": "China", "city": "Beijing", "postal": null, "latitude": 39.9288, "longitude": 116.3889, "IPv4": "220.181.108.77", "state": "Beijing"}, "54.36.148.254": {"country_code": "FR", "country_name": "France", "city": null, "postal": null, "latitude": 48.8582, "longitude": 2.3387000000000002, "IPv4": "54.36.148.254", "state": null}, "54.36.149.78": {"country_code": "FR", "country_name": "France", "city": null, "postal": null, "latitude": 48.8582, "longitude": 2.3387000000000002, "IPv4": "54.36.149.78", "state": null}, "31.26.8.5": {"country_code": "IT", "country_name": "Italy", "city": null, "postal": null, "latitude": 43.1479, "longitude": 12.1097, "IPv4": "31.26.8.5", "state": null}, "54.36.148.168": {"country_code": "FR", "country_name": "France", "city": null, "postal": null, "latitude": 48.8582, "longitude": 2.3387000000000002, "IPv4": "54.36.148.168", "state": null}, "54.36.149.73": {"country_code": "FR", "country_name": "France", "city": null, "postal": null, "latitude": 48.8582, "longitude": 2.3387000000000002, "IPv4": "54.36.149.73", "state": null}, "114.119.150.158": {"country_code": "CN", "country_name": "China", "city": null, "postal": null, "latitude": 34.7725, "longitude": 113.7266, "IPv4": "114.119.150.158", "state": null}, "185.191.171.45": {"country_code": "MD", "country_name": "Republic of Moldova", "city": null, "postal": null, "latitude": 47.0188, "longitude": 28.8128, "IPv4": "185.191.171.45", "state": null}, "54.36.148.18": {"country_code": "FR", "country_name": "France", "city": null, "postal": null, "latitude": 48.8582, "longitude": 2.3387000000000002, "IPv4": "54.36.148.18", "state": null}, "83.122.235.102": {"country_code": "IR", "country_name": "Iran", "city": null, "postal": null, "latitude": 35.6961, "longitude": 51.4231, "IPv4": "83.122.235.102", "state": null}, "220.181.108.91": {"country_code": "CN", "country_name": "China", "city": "Beijing", "postal": null, "latitude": 39.9288, "longitude": 116.3889, "IPv4": "220.181.108.91", "state": "Beijing"}, "220.181.108.114": {"country_code": "CN", "country_name": "China", "city": "Beijing", "postal": null, "latitude": 39.9288, "longitude": 116.3889, "IPv4": "220.181.108.114", "state": "Beijing"}, "142.147.97.85": {"country_code": "US", "country_name": "United States", "city": null, "postal": null, "latitude": 37.751, "longitude": -97.822, "IPv4": "142.147.97.85", "state": null}, "13.66.139.67": {"country_code": "US", "country_name": "United States", "city": null, "postal": null, "latitude": 47.6062, "longitude": -122.3321, "IPv4": "13.66.139.67", "state": "Washington"}, "54.36.148.163": {"country_code": "FR", "country_name": "France", "city": null, "postal": null, "latitude": 48.8582, "longitude": 2.3387000000000002, "IPv4": "54.36.148.163", "state": null}, "116.179.32.215": {"country_code": "CN", "country_name": "China", "city": null, "postal": null, "latitude": 34.7725, "longitude": 113.7266, "IPv4": "116.179.32.215", "state": null}, "104.205.18.242": {"country_code": "CA", "country_name": "Canada", "city": "Edmonton", "postal": "T6W", "latitude": 53.4179, "longitude": -113.5785, "IPv4": "104.205.18.242", "state": "Alberta"}, "185.191.171.39": {"country_code": "MD", "country_name": "Republic of Moldova", "city": null, "postal": null, "latitude": 47.0188, "longitude": 28.8128, "IPv4": "185.191.171.39", "state": null}, "54.36.148.21": {"country_code": "FR", "country_name": "France", "city": null, "postal": null, "latitude": 48.8582, "longitude": 2.3387000000000002, "IPv4": "54.36.148.21", "state": null}, "114.119.140.14": {"country_code": "CN", "country_name": "China", "city": null, "postal": null, "latitude": 34.7725, "longitude": 113.7266, "IPv4": "114.119.140.14", "state": null}, "54.36.148.190": {"country_code": "FR", "country_name": "France", "city": null, "postal": null, "latitude": 48.8582, "longitude": 2.3387000000000002, "IPv4": "54.36.148.190", "state": null}, "54.36.148.98": {"country_code": "FR", "country_name": "France", "city": null, "postal": null, "latitude": 48.8582, "longitude": 2.3387000000000002, "IPv4": "54.36.148.98", "state": null}, "116.179.32.158": {"country_code": "CN", "country_name": "China", "city": null, "postal": null, "latitude": 34.7725, "longitude": 113.7266, "IPv4": "116.179.32.158", "state": null}, "54.36.149.97": {"country_code": "FR", "country_name": "France", "city": null, "postal": null, "latitude": 48.8582, "longitude": 2.3387000000000002, "IPv4": "54.36.149.97", "state": null}, "42.120.161.124": {"country_code": "CN", "country_name": "China", "city": null, "postal": null, "latitude": 30.2936, "longitude": 120.1614, "IPv4": "42.120.161.124", "state": "Zhejiang"}, "106.11.155.42": {"country_code": "CN", "country_name": "China", "city": null, "postal": null, "latitude": 30.2936, "longitude": 120.1614, "IPv4": "106.11.155.42", "state": "Zhejiang"}, "54.36.148.196": {"country_code": "FR", "country_name": "France", "city": null, "postal": null, "latitude": 48.8582, "longitude": 2.3387000000000002, "IPv4": "54.36.148.196", "state": null}, "116.179.32.225": {"country_code": "CN", "country_name": "China", "city": null, "postal": null, "latitude": 34.7725, "longitude": 113.7266, "IPv4": "116.179.32.225", "state": null}, "54.36.148.104": {"country_code": "FR", "country_name": "France", "city": null, "postal": null, "latitude": 48.8582, "longitude": 2.3387000000000002, "IPv4": "54.36.148.104", "state": null}, "106.11.157.72": {"country_code": "CN", "country_name": "China", "city": null, "postal": null, "latitude": 30.2936, "longitude": 120.1614, "IPv4": "106.11.157.72", "state": "Zhejiang"}, "106.11.152.105": {"country_code": "CN", "country_name": "China", "city": null, "postal": null, "latitude": 30.2936, "longitude": 120.1614, "IPv4": "106.11.152.105", "state": "Zhejiang"}, "54.36.149.65": {"country_code": "FR", "country_name": "France", "city": null, "postal": null, "latitude": 48.8582, "longitude": 2.3387000000000002, "IPv4": "54.36.149.65", "state": null}, "106.11.158.43": {"country_code": "CN", "country_name": "China", "city": null, "postal": null, "latitude": 30.2936, "longitude": 120.1614, "IPv4": "106.11.158.43", "state": "Zhejiang"}, "42.156.137.49": {"country_code": "CN", "country_name": "China", "city": null, "postal": null, "latitude": 30.2936, "longitude": 120.1614, "IPv4": "42.156.137.49", "state": "Zhejiang"}, "147.92.153.11": {"country_code": "JP", "country_name": "Japan", "city": null, "postal": null, "latitude": 35.69, "longitude": 139.69, "IPv4": "147.92.153.11", "state": null}, "42.120.160.74": {"country_code": "CN", "country_name": "China", "city": null, "postal": null, "latitude": 30.2936, "longitude": 120.1614, "IPv4": "42.120.160.74", "state": "Zhejiang"}, "106.11.158.108": {"country_code": "CN", "country_name": "China", "city": null, "postal": null, "latitude": 30.2936, "longitude": 120.1614, "IPv4": "106.11.158.108", "state": "Zhejiang"}, "42.156.139.14": {"country_code": "CN", "country_name": "China", "city": null, "postal": null, "latitude": 30.2936, "longitude": 120.1614, "IPv4": "42.156.139.14", "state": "Zhejiang"}, "42.156.136.13": {"country_code": "CN", "country_name": "China", "city": null, "postal": null, "latitude": 30.2936, "longitude": 120.1614, "IPv4": "42.156.136.13", "state": "Zhejiang"}, "185.191.171.12": {"country_code": "MD", "country_name": "Republic of Moldova", "city": null, "postal": null, "latitude": 47.0188, "longitude": 28.8128, "IPv4": "185.191.171.12", "state": null}, "54.36.148.117": {"country_code": "FR", "country_name": "France", "city": null, "postal": null, "latitude": 48.8582, "longitude": 2.3387000000000002, "IPv4": "54.36.148.117", "state": null}, "42.156.139.110": {"country_code": "CN", "country_name": "China", "city": null, "postal": null, "latitude": 30.2936, "longitude": 120.1614, "IPv4": "42.156.139.110", "state": "Zhejiang"}, "42.120.161.111": {"country_code": "CN", "country_name": "China", "city": null, "postal": null, "latitude": 30.2936, "longitude": 120.1614, "IPv4": "42.120.161.111", "state": "Zhejiang"}, "42.120.160.24": {"country_code": "CN", "country_name": "China", "city": null, "postal": null, "latitude": 30.2936, "longitude": 120.1614, "IPv4": "42.120.160.24", "state": "Zhejiang"}, "114.119.136.69": {"country_code": "CN", "country_name": "China", "city": null, "postal": null, "latitude": 34.7725, "longitude": 113.7266, "IPv4": "114.119.136.69", "state": null}, "42.120.160.49": {"country_code": "CN", "country_name": "China", "city": null, "postal": null, "latitude": 30.2936, "longitude": 120.1614, "IPv4": "42.120.160.49", "state": "Zhejiang"}, "54.36.148.79": {"country_code": "FR", "country_name": "France", "city": null, "postal": null, "latitude": 48.8582, "longitude": 2.3387000000000002, "IPv4": "54.36.148.79", "state": null}, "106.11.159.111": {"country_code": "CN", "country_name": "China", "city": null, "postal": null, "latitude": 30.2936, "longitude": 120.1614, "IPv4": "106.11.159.111", "state": "Zhejiang"}, "42.156.137.56": {"country_code": "CN", "country_name": "China", "city": null, "postal": null, "latitude": 30.2936, "longitude": 120.1614, "IPv4": "42.156.137.56", "state": "Zhejiang"}, "220.181.108.141": {"country_code": "CN", "country_name": "China", "city": "Beijing", "postal": null, "latitude": 39.9288, "longitude": 116.3889, "IPv4": "220.181.108.141", "state": "Beijing"}, "54.36.149.38": {"country_code": "FR", "country_name": "France", "city": null, "postal": null, "latitude": 48.8582, "longitude": 2.3387000000000002, "IPv4": "54.36.149.38", "state": null}, "116.179.32.77": {"country_code": "CN", "country_name": "China", "city": null, "postal": null, "latitude": 34.7725, "longitude": 113.7266, "IPv4": "116.179.32.77", "state": null}, "42.120.161.51": {"country_code": "CN", "country_name": "China", "city": null, "postal": null, "latitude": 30.2936, "longitude": 120.1614, "IPv4": "42.120.161.51", "state": "Zhejiang"}, "54.36.149.63": {"country_code": "FR", "country_name": "France", "city": null, "postal": null, "latitude": 48.8582, "longitude": 2.3387000000000002, "IPv4": "54.36.149.63", "state": null}, "116.179.32.206": {"country_code": "CN", "country_name": "China", "city": null, "postal": null, "latitude": 34.7725, "longitude": 113.7266, "IPv4": "116.179.32.206", "state": null}, "147.92.153.10": {"country_code": "JP", "country_name": "Japan", "city": null, "postal": null, "latitude": 35.69, "longitude": 139.69, "IPv4": "147.92.153.10", "state": null}, "104.237.142.57": {"country_code": "US", "country_name": "United States", "city": "Dallas", "postal": "75270", "latitude": 32.7787, "longitude": -96.8217, "IPv4": "104.237.142.57", "state": "Texas"}, "114.119.151.168": {"country_code": "CN", "country_name": "China", "city": null, "postal": null, "latitude": 34.7725, "longitude": 113.7266, "IPv4": "114.119.151.168", "state": null}, "54.36.148.160": {"country_code": "FR", "country_name": "France", "city": null, "postal": null, "latitude": 48.8582, "longitude": 2.3387000000000002, "IPv4": "54.36.148.160", "state": null}, "54.36.148.225": {"country_code": "FR", "country_name": "France", "city": null, "postal": null, "latitude": 48.8582, "longitude": 2.3387000000000002, "IPv4": "54.36.148.225", "state": null}, "54.36.148.36": {"country_code": "FR", "country_name": "France", "city": null, "postal": null, "latitude": 48.8582, "longitude": 2.3387000000000002, "IPv4": "54.36.148.36", "state": null}, "54.36.149.101": {"country_code": "FR", "country_name": "France", "city": null, "postal": null, "latitude": 48.8582, "longitude": 2.3387000000000002, "IPv4": "54.36.149.101", "state": null}, "54.36.148.191": {"country_code": "FR", "country_name": "France", "city": null, "postal": null, "latitude": 48.8582, "longitude": 2.3387000000000002, "IPv4": "54.36.148.191", "state": null}, "185.97.134.157": {"country_code": "PS", "country_name": "Palestine", "city": "Gaza", "postal": null, "latitude": 31.5, "longitude": 34.4667, "IPv4": "185.97.134.157", "state": null}, "54.36.148.23": {"country_code": "FR", "country_name": "France", "city": null, "postal": null, "latitude": 48.8582, "longitude": 2.3387000000000002, "IPv4": "54.36.148.23", "state": null}, "54.36.148.240": {"country_code": "FR", "country_name": "France", "city": null, "postal": null, "latitude": 48.8582, "longitude": 2.3387000000000002, "IPv4": "54.36.148.240", "state": null}, "141.99.60.125": {"country_code": "DE", "country_name": "Germany", "city": "Siegen", "postal": "57072", "latitude": 50.8734, "longitude": 8.0104, "IPv4": "141.99.60.125", "state": "North Rhine-Westphalia"}, "54.36.148.124": {"country_code": "FR", "country_name": "France", "city": null, "postal": null, "latitude": 48.8582, "longitude": 2.3387000000000002, "IPv4": "54.36.148.124", "state": null}, "114.119.144.63": {"country_code": "CN", "country_name": "China", "city": null, "postal": null, "latitude": 34.7725, "longitude": 113.7266, "IPv4": "114.119.144.63", "state": null}, "54.36.148.252": {"country_code": "FR", "country_name": "France", "city": null, "postal": null, "latitude": 48.8582, "longitude": 2.3387000000000002, "IPv4": "54.36.148.252", "state": null}, "54.36.148.231": {"country_code": "FR", "country_name": "France", "city": null, "postal": null, "latitude": 48.8582, "longitude": 2.3387000000000002, "IPv4": "54.36.148.231", "state": null}, "94.182.176.136": {"country_code": "IR", "country_name": "Iran", "city": null, "postal": null, "latitude": 35.6961, "longitude": 51.4231, "IPv4": "94.182.176.136", "state": null}, "45.141.58.94": {"country_code": "Not found", "country_name": "Not found", "city": "Not found", "postal": "Not found", "latitude": "Not found", "longitude": "Not found", "IPv4": "Not found", "state": "Not found"}, "147.92.153.15": {"country_code": "JP", "country_name": "Japan", "city": null, "postal": null, "latitude": 35.69, "longitude": 139.69, "IPv4": "147.92.153.15", "state": null}, "54.36.148.101": {"country_code": "FR", "country_name": "France", "city": null, "postal": null, "latitude": 48.8582, "longitude": 2.3387000000000002, "IPv4": "54.36.148.101", "state": null}, "118.71.99.146": {"country_code": "VN", "country_name": "Vietnam", "city": "Hanoi", "postal": null, "latitude": 21.0333, "longitude": 105.85, "IPv4": "118.71.99.146", "state": "Hanoi"}, "114.119.157.231": {"country_code": "CN", "country_name": "China", "city": null, "postal": null, "latitude": 34.7725, "longitude": 113.7266, "IPv4": "114.119.157.231", "state": null}, "66.228.55.250": {"country_code": "US", "country_name": "United States", "city": "Dallas", "postal": "75270", "latitude": 32.7787, "longitude": -96.8217, "IPv4": "66.228.55.250", "state": "Texas"}, "54.36.148.186": {"country_code": "FR", "country_name": "France", "city": null, "postal": null, "latitude": 48.8582, "longitude": 2.3387000000000002, "IPv4": "54.36.148.186", "state": null}, "54.36.148.75": {"country_code": "FR", "country_name": "France", "city": null, "postal": null, "latitude": 48.8582, "longitude": 2.3387000000000002, "IPv4": "54.36.148.75", "state": null}, "54.36.148.38": {"country_code": "FR", "country_name": "France", "city": null, "postal": null, "latitude": 48.8582, "longitude": 2.3387000000000002, "IPv4": "54.36.148.38", "state": null}, "220.181.108.108": {"country_code": "CN", "country_name": "China", "city": "Beijing", "postal": null, "latitude": 39.9288, "longitude": 116.3889, "IPv4": "220.181.108.108", "state": "Beijing"}, "54.36.148.212": {"country_code": "FR", "country_name": "France", "city": null, "postal": null, "latitude": 48.8582, "longitude": 2.3387000000000002, "IPv4": "54.36.148.212", "state": null}, "45.17.162.244": {"country_code": "US", "country_name": "United States", "city": "Atlanta", "postal": "30309", "latitude": 33.7984, "longitude": -84.3883, "IPv4": "45.17.162.244", "state": "Georgia"}, "220.181.108.149": {"country_code": "CN", "country_name": "China", "city": "Beijing", "postal": null, "latitude": 39.9288, "longitude": 116.3889, "IPv4": "220.181.108.149", "state": "Beijing"}, "54.36.148.161": {"country_code": "FR", "country_name": "France", "city": null, "postal": null, "latitude": 48.8582, "longitude": 2.3387000000000002, "IPv4": "54.36.148.161", "state": null}, "103.217.123.216": {"country_code": "IN", "country_name": "India", "city": "Amritsar", "postal": "143102", "latitude": 31.6331, "longitude": 74.8656, "IPv4": "103.217.123.216", "state": "Punjab"}, "92.247.181.28": {"country_code": "BG", "country_name": "Bulgaria", "city": "Sofia", "postal": "1000", "latitude": 42.6833, "longitude": 23.3167, "IPv4": "92.247.181.28", "state": "Sofia-Capital"}, "185.191.171.34": {"country_code": "MD", "country_name": "Republic of Moldova", "city": null, "postal": null, "latitude": 47.0188, "longitude": 28.8128, "IPv4": "185.191.171.34", "state": null}, "185.191.171.9": {"country_code": "MD", "country_name": "Republic of Moldova", "city": null, "postal": null, "latitude": 47.0188, "longitude": 28.8128, "IPv4": "185.191.171.9", "state": null}, "54.36.148.222": {"country_code": "FR", "country_name": "France", "city": null, "postal": null, "latitude": 48.8582, "longitude": 2.3387000000000002, "IPv4": "54.36.148.222", "state": null}, "54.36.149.93": {"country_code": "FR", "country_name": "France", "city": null, "postal": null, "latitude": 48.8582, "longitude": 2.3387000000000002, "IPv4": "54.36.149.93", "state": null}, "185.191.171.6": {"country_code": "MD", "country_name": "Republic of Moldova", "city": null, "postal": null, "latitude": 47.0188, "longitude": 28.8128, "IPv4": "185.191.171.6", "state": null}, "114.119.157.158": {"country_code": "CN", "country_name": "China", "city": null, "postal": null, "latitude": 34.7725, "longitude": 113.7266, "IPv4": "114.119.157.158", "state": null}, "185.191.171.5": {"country_code": "MD", "country_name": "Republic of Moldova", "city": null, "postal": null, "latitude": 47.0188, "longitude": 28.8128, "IPv4": "185.191.171.5", "state": null}, "54.36.148.180": {"country_code": "FR", "country_name": "France", "city": null, "postal": null, "latitude": 48.8582, "longitude": 2.3387000000000002, "IPv4": "54.36.148.180", "state": null}, "73.145.137.88": {"country_code": "US", "country_name": "United States", "city": "Okemos", "postal": "48864", "latitude": 42.7053, "longitude": -84.4187, "IPv4": "73.145.137.88", "state": "Michigan"}, "54.36.148.9": {"country_code": "FR", "country_name": "France", "city": null, "postal": null, "latitude": 48.8582, "longitude": 2.3387000000000002, "IPv4": "54.36.148.9", "state": null}, "54.36.148.213": {"country_code": "FR", "country_name": "France", "city": null, "postal": null, "latitude": 48.8582, "longitude": 2.3387000000000002, "IPv4": "54.36.148.213", "state": null}, "42.156.138.72": {"country_code": "CN", "country_name": "China", "city": null, "postal": null, "latitude": 30.2936, "longitude": 120.1614, "IPv4": "42.156.138.72", "state": "Zhejiang"}, "142.4.217.113": {"country_code": "CA", "country_name": "Canada", "city": "Montreal", "postal": "H3A", "latitude": 45.504, "longitude": -73.5747, "IPv4": "142.4.217.113", "state": "Quebec"}, "103.4.31.137": {"country_code": "MY", "country_name": "Malaysia", "city": null, "postal": null, "latitude": 2.5, "longitude": 112.5, "IPv4": "103.4.31.137", "state": null}, "104.200.21.180": {"country_code": "US", "country_name": "United States", "city": "Dallas", "postal": "75270", "latitude": 32.7787, "longitude": -96.8217, "IPv4": "104.200.21.180", "state": "Texas"}, "52.212.92.212": {"country_code": "IE", "country_name": "Ireland", "city": "Dublin", "postal": "D02", "latitude": 53.3331, "longitude": -6.2489, "IPv4": "52.212.92.212", "state": "Leinster"}, "111.119.187.31": {"country_code": "PK", "country_name": "Pakistan", "city": "Karachi", "postal": "12311", "latitude": 24.9056, "longitude": 67.0822, "IPv4": "111.119.187.31", "state": "Sindh"}, "114.119.146.255": {"country_code": "CN", "country_name": "China", "city": null, "postal": null, "latitude": 34.7725, "longitude": 113.7266, "IPv4": "114.119.146.255", "state": null}, "54.36.149.55": {"country_code": "FR", "country_name": "France", "city": null, "postal": null, "latitude": 48.8582, "longitude": 2.3387000000000002, "IPv4": "54.36.149.55", "state": null}, "185.191.171.41": {"country_code": "MD", "country_name": "Republic of Moldova", "city": null, "postal": null, "latitude": 47.0188, "longitude": 28.8128, "IPv4": "185.191.171.41", "state": null}, "54.36.148.151": {"country_code": "FR", "country_name": "France", "city": null, "postal": null, "latitude": 48.8582, "longitude": 2.3387000000000002, "IPv4": "54.36.148.151", "state": null}, "188.40.113.23": {"country_code": "DE", "country_name": "Germany", "city": null, "postal": null, "latitude": 51.2993, "longitude": 9.491, "IPv4": "188.40.113.23", "state": null}, "220.181.108.81": {"country_code": "CN", "country_name": "China", "city": "Beijing", "postal": null, "latitude": 39.9288, "longitude": 116.3889, "IPv4": "220.181.108.81", "state": "Beijing"}, "54.36.148.80": {"country_code": "FR", "country_name": "France", "city": null, "postal": null, "latitude": 48.8582, "longitude": 2.3387000000000002, "IPv4": "54.36.148.80", "state": null}, "54.36.148.207": {"country_code": "FR", "country_name": "France", "city": null, "postal": null, "latitude": 48.8582, "longitude": 2.3387000000000002, "IPv4": "54.36.148.207", "state": null}, "54.36.148.218": {"country_code": "FR", "country_name": "France", "city": null, "postal": null, "latitude": 48.8582, "longitude": 2.3387000000000002, "IPv4": "54.36.148.218", "state": null}, "185.191.171.20": {"country_code": "MD", "country_name": "Republic of Moldova", "city": null, "postal": null, "latitude": 47.0188, "longitude": 28.8128, "IPv4": "185.191.171.20", "state": null}, "54.36.149.71": {"country_code": "FR", "country_name": "France", "city": null, "postal": null, "latitude": 48.8582, "longitude": 2.3387000000000002, "IPv4": "54.36.149.71", "state": null}, "54.36.148.16": {"country_code": "FR", "country_name": "France", "city": null, "postal": null, "latitude": 48.8582, "longitude": 2.3387000000000002, "IPv4": "54.36.148.16", "state": null}, "111.71.87.223": {"country_code": "TW", "country_name": "Taiwan", "city": "Taipei", "postal": null, "latitude": 25.0478, "longitude": 121.5318, "IPv4": "111.71.87.223", "state": "Taipei City"}, "54.36.149.27": {"country_code": "FR", "country_name": "France", "city": null, "postal": null, "latitude": 48.8582, "longitude": 2.3387000000000002, "IPv4": "54.36.149.27", "state": null}, "116.179.32.89": {"country_code": "CN", "country_name": "China", "city": null, "postal": null, "latitude": 34.7725, "longitude": 113.7266, "IPv4": "116.179.32.89", "state": null}, "54.36.148.209": {"country_code": "FR", "country_name": "France", "city": null, "postal": null, "latitude": 48.8582, "longitude": 2.3387000000000002, "IPv4": "54.36.148.209", "state": null}, "116.179.32.131": {"country_code": "CN", "country_name": "China", "city": null, "postal": null, "latitude": 34.7725, "longitude": 113.7266, "IPv4": "116.179.32.131", "state": null}, "167.114.43.85": {"country_code": "CA", "country_name": "Canada", "city": "Montreal", "postal": "H3A", "latitude": 45.504, "longitude": -73.5747, "IPv4": "167.114.43.85", "state": "Quebec"}, "54.36.148.145": {"country_code": "FR", "country_name": "France", "city": null, "postal": null, "latitude": 48.8582, "longitude": 2.3387000000000002, "IPv4": "54.36.148.145", "state": null}, "185.191.171.33": {"country_code": "MD", "country_name": "Republic of Moldova", "city": null, "postal": null, "latitude": 47.0188, "longitude": 28.8128, "IPv4": "185.191.171.33", "state": null}, "154.17.3.173": {"country_code": "US", "country_name": "United States", "city": null, "postal": null, "latitude": 37.751, "longitude": -97.822, "IPv4": "154.17.3.173", "state": null}, "54.36.148.99": {"country_code": "FR", "country_name": "France", "city": null, "postal": null, "latitude": 48.8582, "longitude": 2.3387000000000002, "IPv4": "54.36.148.99", "state": null}, "54.36.149.104": {"country_code": "FR", "country_name": "France", "city": null, "postal": null, "latitude": 48.8582, "longitude": 2.3387000000000002, "IPv4": "54.36.149.104", "state": null}, "54.36.149.87": {"country_code": "FR", "country_name": "France", "city": null, "postal": null, "latitude": 48.8582, "longitude": 2.3387000000000002, "IPv4": "54.36.149.87", "state": null}, "54.36.148.102": {"country_code": "FR", "country_name": "France", "city": null, "postal": null, "latitude": 48.8582, "longitude": 2.3387000000000002, "IPv4": "54.36.148.102", "state": null}, "116.179.32.143": {"country_code": "CN", "country_name": "China", "city": null, "postal": null, "latitude": 34.7725, "longitude": 113.7266, "IPv4": "116.179.32.143", "state": null}, "103.151.47.213": {"country_code": "Not found", "country_name": "Not found", "city": "Not found", "postal": "Not found", "latitude": "Not found", "longitude": "Not found", "IPv4": "Not found", "state": "Not found"}, "116.179.32.135": {"country_code": "CN", "country_name": "China", "city": null, "postal": null, "latitude": 34.7725, "longitude": 113.7266, "IPv4": "116.179.32.135", "state": null}, "54.36.149.68": {"country_code": "FR", "country_name": "France", "city": null, "postal": null, "latitude": 48.8582, "longitude": 2.3387000000000002, "IPv4": "54.36.149.68", "state": null}, "97.82.203.67": {"country_code": "US", "country_name": "United States", "city": "Easley", "postal": "29642", "latitude": 34.7901, "longitude": -82.5937, "IPv4": "97.82.203.67", "state": "South Carolina"}, "54.36.149.103": {"country_code": "FR", "country_name": "France", "city": null, "postal": null, "latitude": 48.8582, "longitude": 2.3387000000000002, "IPv4": "54.36.149.103", "state": null}, "151.80.109.120": {"country_code": "FR", "country_name": "France", "city": "Roubaix", "postal": null, "latitude": 50.6942, "longitude": 3.1746, "IPv4": "151.80.109.120", "state": "North"}, "157.49.194.37": {"country_code": "IN", "country_name": "India", "city": "Bengaluru", "postal": "560049", "latitude": 12.9833, "longitude": 77.5833, "IPv4": "157.49.194.37", "state": "Karnataka"}, "207.46.13.5": {"country_code": "US", "country_name": "United States", "city": null, "postal": null, "latitude": 47.6062, "longitude": -122.3321, "IPv4": "207.46.13.5", "state": "Washington"}, "185.191.171.40": {"country_code": "MD", "country_name": "Republic of Moldova", "city": null, "postal": null, "latitude": 47.0188, "longitude": 28.8128, "IPv4": "185.191.171.40", "state": null}, "24.93.243.250": {"country_code": "US", "country_name": "United States", "city": "Hermitage", "postal": "16148", "latitude": 41.2326, "longitude": -80.453, "IPv4": "24.93.243.250", "state": "Pennsylvania"}, "54.36.148.219": {"country_code": "FR", "country_name": "France", "city": null, "postal": null, "latitude": 48.8582, "longitude": 2.3387000000000002, "IPv4": "54.36.148.219", "state": null}, "54.36.148.19": {"country_code": "FR", "country_name": "France", "city": null, "postal": null, "latitude": 48.8582, "longitude": 2.3387000000000002, "IPv4": "54.36.148.19", "state": null}, "54.36.148.83": {"country_code": "FR", "country_name": "France", "city": null, "postal": null, "latitude": 48.8582, "longitude": 2.3387000000000002, "IPv4": "54.36.148.83", "state": null}, "220.181.108.94": {"country_code": "CN", "country_name": "China", "city": "Beijing", "postal": null, "latitude": 39.9288, "longitude": 116.3889, "IPv4": "220.181.108.94", "state": "Beijing"}, "54.36.148.106": {"country_code": "FR", "country_name": "France", "city": null, "postal": null, "latitude": 48.8582, "longitude": 2.3387000000000002, "IPv4": "54.36.148.106", "state": null}, "31.10.150.139": {"country_code": "CH", "country_name": "Switzerland", "city": "Zurich", "postal": "8055", "latitude": 47.3667, "longitude": 8.55, "IPv4": "31.10.150.139", "state": "Zurich"}, "185.245.85.146": {"country_code": "SK", "country_name": "Slovakia", "city": "Bratislava", "postal": "851 01", "latitude": 48.1482, "longitude": 17.1067, "IPv4": "185.245.85.146", "state": "Bratislava"}, "157.42.97.213": {"country_code": "IN", "country_name": "India", "city": "Patna", "postal": "800020", "latitude": 25.6, "longitude": 85.1167, "IPv4": "157.42.97.213", "state": "Bihar"}, "54.36.149.49": {"country_code": "FR", "country_name": "France", "city": null, "postal": null, "latitude": 48.8582, "longitude": 2.3387000000000002, "IPv4": "54.36.149.49", "state": null}, "178.63.51.106": {"country_code": "DE", "country_name": "Germany", "city": null, "postal": null, "latitude": 51.2993, "longitude": 9.491, "IPv4": "178.63.51.106", "state": null}, "114.119.131.192": {"country_code": "CN", "country_name": "China", "city": null, "postal": null, "latitude": 34.7725, "longitude": 113.7266, "IPv4": "114.119.131.192", "state": null}, "220.181.108.118": {"country_code": "CN", "country_name": "China", "city": "Beijing", "postal": null, "latitude": 39.9288, "longitude": 116.3889, "IPv4": "220.181.108.118", "state": "Beijing"}, "54.36.148.245": {"country_code": "FR", "country_name": "France", "city": null, "postal": null, "latitude": 48.8582, "longitude": 2.3387000000000002, "IPv4": "54.36.148.245", "state": null}, "185.191.171.4": {"country_code": "MD", "country_name": "Republic of Moldova", "city": null, "postal": null, "latitude": 47.0188, "longitude": 28.8128, "IPv4": "185.191.171.4", "state": null}, "54.36.149.18": {"country_code": "FR", "country_name": "France", "city": null, "postal": null, "latitude": 48.8582, "longitude": 2.3387000000000002, "IPv4": "54.36.149.18", "state": null}, "54.36.148.65": {"country_code": "FR", "country_name": "France", "city": null, "postal": null, "latitude": 48.8582, "longitude": 2.3387000000000002, "IPv4": "54.36.148.65", "state": null}, "220.181.108.103": {"country_code": "CN", "country_name": "China", "city": "Beijing", "postal": null, "latitude": 39.9288, "longitude": 116.3889, "IPv4": "220.181.108.103", "state": "Beijing"}, "54.36.149.76": {"country_code": "FR", "country_name": "France", "city": null, "postal": null, "latitude": 48.8582, "longitude": 2.3387000000000002, "IPv4": "54.36.149.76", "state": null}, "95.90.226.217": {"country_code": "DE", "country_name": "Germany", "city": "Bremen", "postal": "28259", "latitude": 53.0543, "longitude": 8.7457, "IPv4": "95.90.226.217", "state": "Bremen"}, "54.36.148.235": {"country_code": "FR", "country_name": "France", "city": null, "postal": null, "latitude": 48.8582, "longitude": 2.3387000000000002, "IPv4": "54.36.148.235", "state": null}, "54.36.148.25": {"country_code": "FR", "country_name": "France", "city": null, "postal": null, "latitude": 48.8582, "longitude": 2.3387000000000002, "IPv4": "54.36.148.25", "state": null}, "54.36.148.236": {"country_code": "FR", "country_name": "France", "city": null, "postal": null, "latitude": 48.8582, "longitude": 2.3387000000000002, "IPv4": "54.36.148.236", "state": null}, "129.205.124.202": {"country_code": "NG", "country_name": "Nigeria", "city": null, "postal": null, "latitude": 10, "longitude": 8, "IPv4": "129.205.124.202", "state": null}, "54.36.149.47": {"country_code": "FR", "country_name": "France", "city": null, "postal": null, "latitude": 48.8582, "longitude": 2.3387000000000002, "IPv4": "54.36.149.47", "state": null}, "27.32.61.58": {"country_code": "AU", "country_name": "Australia", "city": "Ryde", "postal": "2112", "latitude": -33.8188, "longitude": 151.1062, "IPv4": "27.32.61.58", "state": "New South Wales"}, "116.179.32.238": {"country_code": "CN", "country_name": "China", "city": null, "postal": null, "latitude": 34.7725, "longitude": 113.7266, "IPv4": "116.179.32.238", "state": null}, "73.103.75.250": {"country_code": "US", "country_name": "United States", "city": "West Lafayette", "postal": "47906", "latitude": 40.444, "longitude": -86.9237, "IPv4": "73.103.75.250", "state": "Indiana"}, "165.231.120.80": {"country_code": "NO", "country_name": "Norway", "city": "Oslo", "postal": "0581", "latitude": 59.9127, "longitude": 10.7461, "IPv4": "165.231.120.80", "state": "Oslo County"}, "54.36.148.198": {"country_code": "FR", "country_name": "France", "city": null, "postal": null, "latitude": 48.8582, "longitude": 2.3387000000000002, "IPv4": "54.36.148.198", "state": null}, "54.36.149.44": {"country_code": "FR", "country_name": "France", "city": null, "postal": null, "latitude": 48.8582, "longitude": 2.3387000000000002, "IPv4": "54.36.149.44", "state": null}, "186.179.42.229": {"country_code": "HN", "country_name": "Honduras", "city": null, "postal": null, "latitude": 15, "longitude": -86.5, "IPv4": "186.179.42.229", "state": null}, "196.240.143.89": {"country_code": "US", "country_name": "United States", "city": "Vancouver", "postal": "98660", "latitude": 45.6418, "longitude": -122.6801, "IPv4": "196.240.143.89", "state": "Washington"}, "185.191.171.1": {"country_code": "MD", "country_name": "Republic of Moldova", "city": null, "postal": null, "latitude": 47.0188, "longitude": 28.8128, "IPv4": "185.191.171.1", "state": null}, "54.36.148.61": {"country_code": "FR", "country_name": "France", "city": null, "postal": null, "latitude": 48.8582, "longitude": 2.3387000000000002, "IPv4": "54.36.148.61", "state": null}, "103.66.79.133": {"country_code": "IN", "country_name": "India", "city": "Chennai", "postal": "600003", "latitude": 13.0833, "longitude": 80.2833, "IPv4": "103.66.79.133", "state": "Tamil Nadu"}, "54.36.149.20": {"country_code": "FR", "country_name": "France", "city": null, "postal": null, "latitude": 48.8582, "longitude": 2.3387000000000002, "IPv4": "54.36.149.20", "state": null}, "54.36.149.17": {"country_code": "FR", "country_name": "France", "city": null, "postal": null, "latitude": 48.8582, "longitude": 2.3387000000000002, "IPv4": "54.36.149.17", "state": null}, "54.36.148.45": {"country_code": "FR", "country_name": "France", "city": null, "postal": null, "latitude": 48.8582, "longitude": 2.3387000000000002, "IPv4": "54.36.148.45", "state": null}, "116.179.32.105": {"country_code": "CN", "country_name": "China", "city": null, "postal": null, "latitude": 34.7725, "longitude": 113.7266, "IPv4": "116.179.32.105", "state": null}, "54.36.148.11": {"country_code": "FR", "country_name": "France", "city": null, "postal": null, "latitude": 48.8582, "longitude": 2.3387000000000002, "IPv4": "54.36.148.11", "state": null}, "114.119.139.123": {"country_code": "CN", "country_name": "China", "city": null, "postal": null, "latitude": 34.7725, "longitude": 113.7266, "IPv4": "114.119.139.123", "state": null}, "54.36.148.17": {"country_code": "FR", "country_name": "France", "city": null, "postal": null, "latitude": 48.8582, "longitude": 2.3387000000000002, "IPv4": "54.36.148.17", "state": null}, "185.176.76.246": {"country_code": "GB", "country_name": "United Kingdom", "city": "Reading", "postal": "RG1", "latitude": 51.4563, "longitude": -0.9711, "IPv4": "185.176.76.246", "state": "Reading"}, "54.36.149.5": {"country_code": "FR", "country_name": "France", "city": null, "postal": null, "latitude": 48.8582, "longitude": 2.3387000000000002, "IPv4": "54.36.149.5", "state": null}, "54.36.149.36": {"country_code": "FR", "country_name": "France", "city": null, "postal": null, "latitude": 48.8582, "longitude": 2.3387000000000002, "IPv4": "54.36.149.36", "state": null}, "220.181.108.121": {"country_code": "CN", "country_name": "China", "city": "Beijing", "postal": null, "latitude": 39.9288, "longitude": 116.3889, "IPv4": "220.181.108.121", "state": "Beijing"}, "220.181.108.184": {"country_code": "CN", "country_name": "China", "city": "Beijing", "postal": null, "latitude": 39.9288, "longitude": 116.3889, "IPv4": "220.181.108.184", "state": "Beijing"}, "173.252.95.21": {"country_code": "US", "country_name": "United States", "city": "Visalia", "postal": "93291", "latitude": 36.3551, "longitude": -119.301, "IPv4": "173.252.95.21", "state": "California"}, "54.36.148.71": {"country_code": "FR", "country_name": "France", "city": null, "postal": null, "latitude": 48.8582, "longitude": 2.3387000000000002, "IPv4": "54.36.148.71", "state": null}, "42.156.136.124": {"country_code": "CN", "country_name": "China", "city": null, "postal": null, "latitude": 30.2936, "longitude": 120.1614, "IPv4": "42.156.136.124", "state": "Zhejiang"}, "42.120.160.122": {"country_code": "CN", "country_name": "China", "city": null, "postal": null, "latitude": 30.2936, "longitude": 120.1614, "IPv4": "42.120.160.122", "state": "Zhejiang"}, "42.120.161.105": {"country_code": "CN", "country_name": "China", "city": null, "postal": null, "latitude": 30.2936, "longitude": 120.1614, "IPv4": "42.120.161.105", "state": "Zhejiang"}, "106.11.152.65": {"country_code": "CN", "country_name": "China", "city": null, "postal": null, "latitude": 30.2936, "longitude": 120.1614, "IPv4": "106.11.152.65", "state": "Zhejiang"}, "42.156.138.71": {"country_code": "CN", "country_name": "China", "city": null, "postal": null, "latitude": 30.2936, "longitude": 120.1614, "IPv4": "42.156.138.71", "state": "Zhejiang"}, "82.77.245.241": {"country_code": "RO", "country_name": "Romania", "city": "Ia\u0219i", "postal": "700186", "latitude": 47.1667, "longitude": 27.6, "IPv4": "82.77.245.241", "state": "Judetul Iasi"}, "49.205.236.175": {"country_code": "IN", "country_name": "India", "city": "Visakhapatnam", "postal": "530004", "latitude": 17.7, "longitude": 83.3, "IPv4": "49.205.236.175", "state": "Andhra Pradesh"}, "106.11.154.65": {"country_code": "CN", "country_name": "China", "city": null, "postal": null, "latitude": 30.2936, "longitude": 120.1614, "IPv4": "106.11.154.65", "state": "Zhejiang"}, "54.36.149.28": {"country_code": "FR", "country_name": "France", "city": null, "postal": null, "latitude": 48.8582, "longitude": 2.3387000000000002, "IPv4": "54.36.149.28", "state": null}, "66.249.79.9": {"country_code": "US", "country_name": "United States", "city": null, "postal": null, "latitude": 37.751, "longitude": -97.822, "IPv4": "66.249.79.9", "state": null}, "106.11.157.91": {"country_code": "CN", "country_name": "China", "city": null, "postal": null, "latitude": 30.2936, "longitude": 120.1614, "IPv4": "106.11.157.91", "state": "Zhejiang"}, "54.36.148.24": {"country_code": "FR", "country_name": "France", "city": null, "postal": null, "latitude": 48.8582, "longitude": 2.3387000000000002, "IPv4": "54.36.148.24", "state": null}, "116.179.32.159": {"country_code": "CN", "country_name": "China", "city": null, "postal": null, "latitude": 34.7725, "longitude": 113.7266, "IPv4": "116.179.32.159", "state": null}, "114.119.134.91": {"country_code": "CN", "country_name": "China", "city": null, "postal": null, "latitude": 34.7725, "longitude": 113.7266, "IPv4": "114.119.134.91", "state": null}, "147.92.153.4": {"country_code": "JP", "country_name": "Japan", "city": null, "postal": null, "latitude": 35.69, "longitude": 139.69, "IPv4": "147.92.153.4", "state": null}, "35.215.115.50": {"country_code": "US", "country_name": "United States", "city": "Mountain View", "postal": "94043", "latitude": 37.4056, "longitude": -122.0775, "IPv4": "35.215.115.50", "state": "California"}, "106.11.155.45": {"country_code": "CN", "country_name": "China", "city": null, "postal": null, "latitude": 30.2936, "longitude": 120.1614, "IPv4": "106.11.155.45", "state": "Zhejiang"}, "147.158.131.13": {"country_code": "MY", "country_name": "Malaysia", "city": "Skudai", "postal": "81300", "latitude": 1.5333, "longitude": 103.6667, "IPv4": "147.158.131.13", "state": "Johor"}, "106.11.158.37": {"country_code": "CN", "country_name": "China", "city": null, "postal": null, "latitude": 30.2936, "longitude": 120.1614, "IPv4": "106.11.158.37", "state": "Zhejiang"},